[{"id_stop_area":1,"name":"GARE DE NEUVILLE UNIVERSITE","longitude":"2.079381","latitude":"49.0146","zone":5,"ignore_itineraire":1},{"id_stop_area":2,"name":"GARE DE CONFLANS FIN D'OISE","longitude":"2.074852","latitude":"48.989519","zone":5,"ignore_itineraire":1},{"id_stop_area":3,"name":"GARE D'ACHERES VILLE","longitude":"2.077233","latitude":"48.970038","zone":5,"ignore_itineraire":1},{"id_stop_area":4,"name":"Gare de Cergy Préfecture","longitude":"2.080522","latitude":"49.036173","zone":5,"ignore_itineraire":1},{"id_stop_area":5,"name":"LA DEFENSE","longitude":"2.23813","latitude":"48.892072","zone":3,"ignore_itineraire":0},{"id_stop_area":6,"name":"Gare de Cergy St Christophe","longitude":"2.034417","latitude":"49.049774","zone":5,"ignore_itineraire":1},{"id_stop_area":7,"name":"Gare de Cergy le Haut","longitude":"2.011046","latitude":"49.04785","zone":5,"ignore_itineraire":1},{"id_stop_area":8,"name":"GARE D'ACHERES GRAND CORMIER","longitude":"2.092409","latitude":"48.955239","zone":5,"ignore_itineraire":1},{"id_stop_area":9,"name":"GARE DE NANTERRE UNIVERSITE","longitude":"2.214932","latitude":"48.901245","zone":3,"ignore_itineraire":0},{"id_stop_area":10,"name":"Gare d'Houilles / Carrières sur Seine","longitude":"2.185371","latitude":"48.919966","zone":4,"ignore_itineraire":1},{"id_stop_area":11,"name":"Gare de Sartrouville","longitude":"2.158244","latitude":"48.937823","zone":4,"ignore_itineraire":1},{"id_stop_area":12,"name":"GARE DE MAISONS LAFFITTE","longitude":"2.144469","latitude":"48.945737","zone":4,"ignore_itineraire":1},{"id_stop_area":13,"name":"GARE DE POISSY","longitude":"2.040776","latitude":"48.933175","zone":5,"ignore_itineraire":1},{"id_stop_area":14,"name":"GARE DE LYON","longitude":"2.372982","latitude":"48.84476","zone":1,"ignore_itineraire":0},{"id_stop_area":15,"name":"GARE DE VAL D EUROPE","longitude":"2.773684","latitude":"48.855179","zone":5,"ignore_itineraire":1},{"id_stop_area":16,"name":"GARE DE BUSSY ST GEORGES","longitude":"2.70902","latitude":"48.836534","zone":5,"ignore_itineraire":1},{"id_stop_area":17,"name":"GARE DE MARNE LA VALLEE CHESSY","longitude":"2.78373","latitude":"48.871097","zone":5,"ignore_itineraire":1},{"id_stop_area":18,"name":"CHARLES DE GAULLE ETOILE","longitude":"2.295317","latitude":"48.873986","zone":1,"ignore_itineraire":0},{"id_stop_area":19,"name":"GARE DE NANTERRE PREFECTURE","longitude":"2.222161","latitude":"48.89616","zone":3,"ignore_itineraire":0},{"id_stop_area":20,"name":"GARE DE NANTERRE VILLE","longitude":"2.194908","latitude":"48.895133","zone":3,"ignore_itineraire":0},{"id_stop_area":21,"name":"GARE DE RUEIL MALMAISON","longitude":"2.172152","latitude":"48.887201","zone":3,"ignore_itineraire":0},{"id_stop_area":22,"name":"GARE DE CHATOU CROISSY","longitude":"2.155378","latitude":"48.885284","zone":4,"ignore_itineraire":1},{"id_stop_area":23,"name":"GARE DU VESINET CENTRE","longitude":"2.134503","latitude":"48.890002","zone":4,"ignore_itineraire":1},{"id_stop_area":24,"name":"GARE DU VESINET LE PECQ","longitude":"2.121728","latitude":"48.897521","zone":4,"ignore_itineraire":1},{"id_stop_area":25,"name":"GARE DE ST GERMAIN EN LAYE","longitude":"2.095017","latitude":"48.898317","zone":4,"ignore_itineraire":1},{"id_stop_area":26,"name":"NATION","longitude":"2.396252","latitude":"48.848518","zone":1,"ignore_itineraire":0},{"id_stop_area":27,"name":"GARE DE VINCENNES","longitude":"2.432601","latitude":"48.847728","zone":2,"ignore_itineraire":0},{"id_stop_area":28,"name":"GARE DE FONTENAY SOUS BOIS","longitude":"2.463965","latitude":"48.843738","zone":3,"ignore_itineraire":0},{"id_stop_area":29,"name":"GARE DE NOGENT SUR MARNE","longitude":"2.471695","latitude":"48.835186","zone":3,"ignore_itineraire":0},{"id_stop_area":30,"name":"GARE DE JOINVILLE LE PONT","longitude":"2.46423","latitude":"48.820993","zone":3,"ignore_itineraire":0},{"id_stop_area":31,"name":"GARE DE ST MAUR CRETEIL","longitude":"2.472465","latitude":"48.806483","zone":3,"ignore_itineraire":0},{"id_stop_area":32,"name":"GARE DU PARC DE ST MAUR","longitude":"2.48608","latitude":"48.804776","zone":3,"ignore_itineraire":0},{"id_stop_area":33,"name":"GARE DE CHAMPIGNY","longitude":"2.510286","latitude":"48.807127","zone":3,"ignore_itineraire":0},{"id_stop_area":34,"name":"GARE DE LA VARENNE CHENNEVIERES","longitude":"2.514032","latitude":"48.794808","zone":3,"ignore_itineraire":0},{"id_stop_area":35,"name":"GARE DE SUCY BONNEUIL","longitude":"2.507341","latitude":"48.77146","zone":4,"ignore_itineraire":1},{"id_stop_area":36,"name":"GARE DE BOISSY ST LEGER","longitude":"2.505652","latitude":"48.753539","zone":4,"ignore_itineraire":1},{"id_stop_area":37,"name":"GARE DE NEUILLY PLAISANCE","longitude":"2.513752","latitude":"48.853323","zone":3,"ignore_itineraire":0},{"id_stop_area":38,"name":"GARE DE BRY SUR MARNE","longitude":"2.526664","latitude":"48.844604","zone":4,"ignore_itineraire":1},{"id_stop_area":39,"name":"GARE DE NOISY LE GRAND MONT D'EST","longitude":"2.552423","latitude":"48.840838","zone":4,"ignore_itineraire":1},{"id_stop_area":40,"name":"GARE DE NOISY CHAMPS","longitude":"2.580931","latitude":"48.843103","zone":4,"ignore_itineraire":1},{"id_stop_area":41,"name":"GARE DE NOISIEL","longitude":"2.615951","latitude":"48.843652","zone":5,"ignore_itineraire":1},{"id_stop_area":42,"name":"GARE DE LOGNES","longitude":"2.633449","latitude":"48.839255","zone":5,"ignore_itineraire":1},{"id_stop_area":43,"name":"GARE DE TORCY MARNE LA VALLEE","longitude":"2.654767","latitude":"48.838961","zone":5,"ignore_itineraire":1},{"id_stop_area":44,"name":"AUBER","longitude":"2.331845","latitude":"48.871725","zone":1,"ignore_itineraire":0},{"id_stop_area":45,"name":"CHATELET LES HALLES","longitude":"2.34738","latitude":"48.861134","zone":1,"ignore_itineraire":0},{"id_stop_area":46,"name":"GARE DE VAL DE FONTENAY","longitude":"2.487923","latitude":"48.853226","zone":3,"ignore_itineraire":0},{"id_stop_area":47,"name":"Aéroport CDG Terminal 2 TGV","longitude":"2.568954","latitude":"49.004126","zone":5,"ignore_itineraire":1},{"id_stop_area":48,"name":"GARE DE LA PLAINE STADE DE FRANCE","longitude":"2.361988","latitude":"48.918518","zone":2,"ignore_itineraire":0},{"id_stop_area":49,"name":"GARE DU NORD","longitude":"2.356499","latitude":"48.880403","zone":1,"ignore_itineraire":0},{"id_stop_area":50,"name":"GARE DE LA COURNEUVE AUBERVILLIERS","longitude":"2.38524","latitude":"48.924132","zone":3,"ignore_itineraire":0},{"id_stop_area":51,"name":"GARE DU BOURGET","longitude":"2.426453","latitude":"48.931168","zone":3,"ignore_itineraire":0},{"id_stop_area":52,"name":"GARE DE DRANCY","longitude":"2.455073","latitude":"48.932839","zone":3,"ignore_itineraire":0},{"id_stop_area":53,"name":"GARE D'AULNAY SOUS BOIS","longitude":"2.494988","latitude":"48.931923","zone":4,"ignore_itineraire":1},{"id_stop_area":54,"name":"GARE DE SEVRAN LIVRY","longitude":"2.534786","latitude":"48.935901","zone":4,"ignore_itineraire":1},{"id_stop_area":55,"name":"GARE DE VERT GALANT","longitude":"2.567602","latitude":"48.945068","zone":4,"ignore_itineraire":1},{"id_stop_area":56,"name":"GARE DE SEVRAN BEAUDOTTES","longitude":"2.524528","latitude":"48.947199","zone":4,"ignore_itineraire":1},{"id_stop_area":57,"name":"GARE DE VILLEPINTE","longitude":"2.511969","latitude":"48.962949","zone":4,"ignore_itineraire":1},{"id_stop_area":58,"name":"Aéroport CDG Terminal 3 - Roissypole","longitude":"2.559673","latitude":"49.01027","zone":5,"ignore_itineraire":1},{"id_stop_area":59,"name":"GARE DE BLANC MESNIL","longitude":"2.477254","latitude":"48.932593","zone":3,"ignore_itineraire":0},{"id_stop_area":60,"name":"GARE DE PARC DES EXPOSITIONS","longitude":"2.513312","latitude":"48.97383","zone":4,"ignore_itineraire":1},{"id_stop_area":61,"name":"GARE DE VILLEPARISIS MITRY LE NEUF","longitude":"2.602377","latitude":"48.953164","zone":5,"ignore_itineraire":1},{"id_stop_area":62,"name":"GARE DE MITRY CLAYE","longitude":"2.64302","latitude":"48.975875","zone":5,"ignore_itineraire":1},{"id_stop_area":63,"name":"GARE DE MASSY VERRIERES","longitude":"2.273229","latitude":"48.734631","zone":4,"ignore_itineraire":1},{"id_stop_area":64,"name":"GARE DE MASSY PALAISEAU","longitude":"2.258232","latitude":"48.724304","zone":4,"ignore_itineraire":1},{"id_stop_area":65,"name":"ST MICHEL NOTRE DAME","longitude":"2.344695","latitude":"48.852995","zone":1,"ignore_itineraire":0},{"id_stop_area":66,"name":"LUXEMBOURG","longitude":"2.340426","latitude":"48.846631","zone":1,"ignore_itineraire":0},{"id_stop_area":67,"name":"PORT ROYAL","longitude":"2.336858","latitude":"48.840038","zone":1,"ignore_itineraire":0},{"id_stop_area":68,"name":"DENFERT ROCHEREAU","longitude":"2.332613","latitude":"48.834109","zone":1,"ignore_itineraire":0},{"id_stop_area":69,"name":"CITE UNIVERSITAIRE","longitude":"2.338978","latitude":"48.82109","zone":1,"ignore_itineraire":0},{"id_stop_area":70,"name":"GARE DE GENTILLY","longitude":"2.340984","latitude":"48.815438","zone":2,"ignore_itineraire":0},{"id_stop_area":71,"name":"GARE DE LAPLACE","longitude":"2.334528","latitude":"48.808071","zone":2,"ignore_itineraire":0},{"id_stop_area":72,"name":"GARE D'ARCUEIL CACHAN","longitude":"2.328521","latitude":"48.798585","zone":3,"ignore_itineraire":0},{"id_stop_area":73,"name":"GARE DE BAGNEUX","longitude":"2.321196","latitude":"48.793342","zone":3,"ignore_itineraire":0},{"id_stop_area":74,"name":"GARE DE BOURG LA REINE","longitude":"2.312827","latitude":"48.780042","zone":3,"ignore_itineraire":0},{"id_stop_area":75,"name":"GARE DE SCEAUX","longitude":"2.297648","latitude":"48.781357","zone":3,"ignore_itineraire":0},{"id_stop_area":76,"name":"GARE DE FONTENAY AUX ROSES","longitude":"2.293115","latitude":"48.787882","zone":3,"ignore_itineraire":0},{"id_stop_area":77,"name":"GARE DE ROBINSON","longitude":"2.281496","latitude":"48.77985","zone":3,"ignore_itineraire":0},{"id_stop_area":78,"name":"GARE DE PARC DE SCEAUX","longitude":"2.311244","latitude":"48.769694","zone":3,"ignore_itineraire":0},{"id_stop_area":79,"name":"GARE DE LA CROIX DE BERNY FRESNES","longitude":"2.304007","latitude":"48.762376","zone":3,"ignore_itineraire":0},{"id_stop_area":80,"name":"GARE D'ANTONY","longitude":"2.301724","latitude":"48.754712","zone":3,"ignore_itineraire":0},{"id_stop_area":81,"name":"GARE DE FONTAINE MICHALON","longitude":"2.296685","latitude":"48.743004","zone":4,"ignore_itineraire":1},{"id_stop_area":82,"name":"GARE DES BACONNETS","longitude":"2.288345","latitude":"48.739468","zone":4,"ignore_itineraire":1},{"id_stop_area":83,"name":"GARE DE PALAISEAU","longitude":"2.24829","latitude":"48.717413","zone":4,"ignore_itineraire":1},{"id_stop_area":84,"name":"GARE DE PALAISEAU VILLEBON","longitude":"2.237934","latitude":"48.707125","zone":4,"ignore_itineraire":1},{"id_stop_area":85,"name":"GARE DE LOZERE","longitude":"2.211915","latitude":"48.705901","zone":4,"ignore_itineraire":1},{"id_stop_area":86,"name":"GARE DU GUICHET","longitude":"2.191498","latitude":"48.706359","zone":5,"ignore_itineraire":1},{"id_stop_area":87,"name":"GARE D'ORSAY VILLE","longitude":"2.182118","latitude":"48.697639","zone":5,"ignore_itineraire":1},{"id_stop_area":88,"name":"Gare de Bures sur Yvette","longitude":"2.163624","latitude":"48.69713","zone":5,"ignore_itineraire":1},{"id_stop_area":89,"name":"GARE DE LA HACQUINIERE","longitude":"2.151642","latitude":"48.695264","zone":5,"ignore_itineraire":1},{"id_stop_area":90,"name":"GARE DE GIF SUR YVETTE","longitude":"2.13749","latitude":"48.697934","zone":5,"ignore_itineraire":1},{"id_stop_area":91,"name":"GARE DE COURCELLE SUR YVETTE","longitude":"2.0987","latitude":"48.700318","zone":5,"ignore_itineraire":1},{"id_stop_area":92,"name":"Gare de Saint-Rémy-Lès-Chevreuse","longitude":"2.0702","latitude":"48.703029","zone":5,"ignore_itineraire":1},{"id_stop_area":93,"name":"Porte de Clichy","longitude":"2.313822","latitude":"48.894366","zone":1,"ignore_itineraire":0},{"id_stop_area":94,"name":"GARE D'EPINAY SUR SEINE","longitude":"2.301635","latitude":"48.955029","zone":3,"ignore_itineraire":0},{"id_stop_area":95,"name":"GARE DE GENNEVILLIERS","longitude":"2.307333","latitude":"48.93341","zone":3,"ignore_itineraire":0},{"id_stop_area":96,"name":"GARE DE ST OUEN","longitude":"2.321192","latitude":"48.904472","zone":2,"ignore_itineraire":0},{"id_stop_area":97,"name":"GARE DES GRESILLONS","longitude":"2.315115","latitude":"48.920238","zone":3,"ignore_itineraire":0},{"id_stop_area":98,"name":"GARE D'ERMONT EAUBONNE","longitude":"2.271386","latitude":"48.980296","zone":4,"ignore_itineraire":1},{"id_stop_area":99,"name":"GARE DE CERNAY","longitude":"2.257127","latitude":"48.98513","zone":4,"ignore_itineraire":1},{"id_stop_area":100,"name":"GARE DE FRANCONVILLE LE PLESSIS BOUCHARD","longitude":"2.234782","latitude":"48.993524","zone":4,"ignore_itineraire":1},{"id_stop_area":101,"name":"Gare de Montigny Beauchamp","longitude":"2.19757","latitude":"49.007403","zone":4,"ignore_itineraire":1},{"id_stop_area":102,"name":"GARE DE PIERRELAYE","longitude":"2.153836","latitude":"49.019353","zone":5,"ignore_itineraire":1},{"id_stop_area":103,"name":"GARE DE ST OUEN L'AUMONE","longitude":"2.105976","latitude":"49.045414","zone":5,"ignore_itineraire":1},{"id_stop_area":104,"name":"GARE DE PONTOISE","longitude":"2.095181","latitude":"49.046869","zone":5,"ignore_itineraire":1},{"id_stop_area":105,"name":"GARE DE ST GRATIEN","longitude":"2.284839","latitude":"48.964313","zone":4,"ignore_itineraire":1},{"id_stop_area":106,"name":"Bibliothèque François Mitterrand","longitude":"2.376747","latitude":"48.829927","zone":1,"ignore_itineraire":0},{"id_stop_area":107,"name":"GARE DE ST OUEN L'AUMONE LIESSE","longitude":"2.128025","latitude":"49.033817","zone":5,"ignore_itineraire":1},{"id_stop_area":108,"name":"PEREIRE LEVALLOIS","longitude":"2.298158","latitude":"48.886058","zone":1,"ignore_itineraire":0},{"id_stop_area":109,"name":"PORTE MAILLOT","longitude":"2.282724","latitude":"48.877693","zone":1,"ignore_itineraire":0},{"id_stop_area":110,"name":"AVENUE FOCH","longitude":"2.275575","latitude":"48.870974","zone":1,"ignore_itineraire":0},{"id_stop_area":111,"name":"AVENUE HENRI MARTIN","longitude":"2.272332","latitude":"48.864838","zone":1,"ignore_itineraire":0},{"id_stop_area":112,"name":"GARE DE VERSAILLES CHANTIERS","longitude":"2.136054","latitude":"48.796194","zone":4,"ignore_itineraire":1},{"id_stop_area":113,"name":"INVALIDES","longitude":"2.314268","latitude":"48.862752","zone":1,"ignore_itineraire":0},{"id_stop_area":114,"name":"PONT DE L'ALMA","longitude":"2.301903","latitude":"48.862303","zone":1,"ignore_itineraire":0},{"id_stop_area":115,"name":"CHAMP DE MARS TOUR EIFFEL","longitude":"2.293225","latitude":"48.85704","zone":1,"ignore_itineraire":0},{"id_stop_area":116,"name":"JAVEL","longitude":"2.275857","latitude":"48.846442","zone":1,"ignore_itineraire":0},{"id_stop_area":117,"name":"Gare d'Issy","longitude":"2.258533","latitude":"48.81983","zone":2,"ignore_itineraire":0},{"id_stop_area":118,"name":"GARE DE MEUDON VAL FLEURY","longitude":"2.241575","latitude":"48.807902","zone":3,"ignore_itineraire":0},{"id_stop_area":119,"name":"GARE DE VERSAILLES CHATEAU / RIVE GAUCHE","longitude":"2.128344","latitude":"48.800433","zone":4,"ignore_itineraire":1},{"id_stop_area":120,"name":"GARE DE PORCHEFONTAINE","longitude":"2.153547","latitude":"48.797136","zone":4,"ignore_itineraire":1},{"id_stop_area":121,"name":"GARE DE CHAVILLE VELIZY","longitude":"2.184434","latitude":"48.799442","zone":3,"ignore_itineraire":0},{"id_stop_area":122,"name":"GARE DE VIROFLAY RIVE GAUCHE","longitude":"2.171312","latitude":"48.800916","zone":3,"ignore_itineraire":0},{"id_stop_area":123,"name":"GARE DE ST CYR","longitude":"2.072282","latitude":"48.799417","zone":5,"ignore_itineraire":1},{"id_stop_area":124,"name":"GARE D'ISSY VAL DE SEINE","longitude":"2.264277","latitude":"48.830054","zone":2,"ignore_itineraire":0},{"id_stop_area":125,"name":"PONT GARIGLIANO - HOPITAL EUROPEEN GEORGES POMPIDOU","longitude":"2.271279","latitude":"48.838945","zone":1,"ignore_itineraire":0},{"id_stop_area":126,"name":"GARE DE PETIT JOUY LES LOGES","longitude":"2.146528","latitude":"48.770753","zone":4,"ignore_itineraire":1},{"id_stop_area":127,"name":"GARE DE JOUY EN JOSAS","longitude":"2.163563","latitude":"48.764932","zone":4,"ignore_itineraire":1},{"id_stop_area":128,"name":"GARE DE VAUBOYEN","longitude":"2.191531","latitude":"48.758641","zone":4,"ignore_itineraire":1},{"id_stop_area":129,"name":"GARE DE BIEVRES","longitude":"2.215403","latitude":"48.751487","zone":4,"ignore_itineraire":1},{"id_stop_area":130,"name":"GARE D'IGNY","longitude":"2.230823","latitude":"48.74004","zone":4,"ignore_itineraire":1},{"id_stop_area":131,"name":"GARE DE LONGJUMEAU","longitude":"2.295525","latitude":"48.702493","zone":4,"ignore_itineraire":1},{"id_stop_area":132,"name":"GARE DE CHILLY MAZARIN","longitude":"2.307514","latitude":"48.700105","zone":4,"ignore_itineraire":1},{"id_stop_area":133,"name":"GARE DE GRAVIGNY BALIZY","longitude":"2.317158","latitude":"48.685082","zone":4,"ignore_itineraire":1},{"id_stop_area":134,"name":"GARE DE PETIT VAUX","longitude":"2.333789","latitude":"48.676082","zone":4,"ignore_itineraire":1},{"id_stop_area":135,"name":"GARE DE ST QUENTIN EN YVELINES","longitude":"2.044842","latitude":"48.787684","zone":5,"ignore_itineraire":1},{"id_stop_area":136,"name":"GARE DES ARDOINES","longitude":"2.408615","latitude":"48.782795","zone":3,"ignore_itineraire":0},{"id_stop_area":137,"name":"GARE DE DOURDAN LA FORET","longitude":"1.995899","latitude":"48.535528","zone":5,"ignore_itineraire":1},{"id_stop_area":138,"name":"GARE D'ANGERVILLE","longitude":"2.003525","latitude":"48.311296","zone":5,"ignore_itineraire":1},{"id_stop_area":139,"name":"BOULAINVILLIERS","longitude":"2.274857","latitude":"48.857515","zone":1,"ignore_itineraire":0},{"id_stop_area":140,"name":"AVENUE DU PRESIDENT KENNEDY","longitude":"2.279924","latitude":"48.853224","zone":1,"ignore_itineraire":0},{"id_stop_area":141,"name":"GARE DE MONNERVILLE","longitude":"2.031707","latitude":"48.348008","zone":5,"ignore_itineraire":1},{"id_stop_area":142,"name":"GARE DE GUILLERVAL","longitude":"2.059912","latitude":"48.374525","zone":5,"ignore_itineraire":1},{"id_stop_area":143,"name":"GARE D'ETAMPES","longitude":"2.159589","latitude":"48.436705","zone":5,"ignore_itineraire":1},{"id_stop_area":144,"name":"GARE D'ETRECHY","longitude":"2.194201","latitude":"48.493619","zone":5,"ignore_itineraire":1},{"id_stop_area":145,"name":"GARE DE CHAMARANDE","longitude":"2.21624","latitude":"48.514714","zone":5,"ignore_itineraire":1},{"id_stop_area":146,"name":"GARE DE LARDY","longitude":"2.255444","latitude":"48.520706","zone":5,"ignore_itineraire":1},{"id_stop_area":147,"name":"GARE DE BOURAY","longitude":"2.290668","latitude":"48.533283","zone":5,"ignore_itineraire":1},{"id_stop_area":148,"name":"GARE DE MAROLLES EN HUREPOIX","longitude":"2.290629","latitude":"48.565367","zone":5,"ignore_itineraire":1},{"id_stop_area":149,"name":"Gare de Bretigny","longitude":"2.302167","latitude":"48.606966","zone":5,"ignore_itineraire":1},{"id_stop_area":150,"name":"GARE DE ST MICHEL SUR ORGE","longitude":"2.306789","latitude":"48.635804","zone":5,"ignore_itineraire":1},{"id_stop_area":151,"name":"Gare de Sainte Geneviève des Bois","longitude":"2.313498","latitude":"48.653134","zone":5,"ignore_itineraire":1},{"id_stop_area":152,"name":"GARE D'EPINAY SUR ORGE","longitude":"2.332142","latitude":"48.669748","zone":4,"ignore_itineraire":1},{"id_stop_area":153,"name":"GARE DE SAVIGNY SUR ORGE","longitude":"2.351477","latitude":"48.676265","zone":4,"ignore_itineraire":1},{"id_stop_area":154,"name":"GARE DE JUVISY","longitude":"2.382675","latitude":"48.689841","zone":4,"ignore_itineraire":1},{"id_stop_area":155,"name":"GARE D'ATHIS MONS","longitude":"2.403611","latitude":"48.713398","zone":4,"ignore_itineraire":1},{"id_stop_area":156,"name":"GARE D'ABLON","longitude":"2.419139","latitude":"48.725154","zone":4,"ignore_itineraire":1},{"id_stop_area":157,"name":"GARE DE VILLENEUVE LE ROI","longitude":"2.425532","latitude":"48.739848","zone":4,"ignore_itineraire":1},{"id_stop_area":158,"name":"GARE DE CHOISY LE ROI","longitude":"2.410499","latitude":"48.764531","zone":3,"ignore_itineraire":0},{"id_stop_area":159,"name":"GARE DE VITRY SUR SEINE","longitude":"2.40161","latitude":"48.799425","zone":3,"ignore_itineraire":0},{"id_stop_area":160,"name":"GARE D'IVRY SUR SEINE","longitude":"2.391022","latitude":"48.814431","zone":2,"ignore_itineraire":0},{"id_stop_area":161,"name":"GARE DE ST MARTIN D'ETAMPES","longitude":"2.145195","latitude":"48.42785","zone":5,"ignore_itineraire":1},{"id_stop_area":162,"name":"GARE DE LA NORVILLE ST GERMAIN LES ARPAJON","longitude":"2.267266","latitude":"48.591564","zone":5,"ignore_itineraire":1},{"id_stop_area":163,"name":"GARE D'ARPAJON","longitude":"2.241515","latitude":"48.586145","zone":5,"ignore_itineraire":1},{"id_stop_area":164,"name":"GARE D'EGLY","longitude":"2.221894","latitude":"48.582512","zone":5,"ignore_itineraire":1},{"id_stop_area":165,"name":"GARE DE BREUILLET BRUYERES LE CHATEL","longitude":"2.191803","latitude":"48.577152","zone":5,"ignore_itineraire":1},{"id_stop_area":166,"name":"GARE DE BREUILLET VILLAGE","longitude":"2.171673","latitude":"48.564846","zone":5,"ignore_itineraire":1},{"id_stop_area":167,"name":"GARE DE ST CHERON","longitude":"2.125692","latitude":"48.551196","zone":5,"ignore_itineraire":1},{"id_stop_area":168,"name":"GARE DE SERMAISE","longitude":"2.069302","latitude":"48.535565","zone":5,"ignore_itineraire":1},{"id_stop_area":169,"name":"GARE DE DOURDAN","longitude":"2.008437","latitude":"48.533609","zone":5,"ignore_itineraire":1},{"id_stop_area":170,"name":"GARE DE PONT DE RUNGIS","longitude":"2.372431","latitude":"48.747537","zone":4,"ignore_itineraire":1},{"id_stop_area":171,"name":"GARE D'ORLY VILLE","longitude":"2.401992","latitude":"48.74243","zone":4,"ignore_itineraire":1},{"id_stop_area":172,"name":"GARE DES SAULES","longitude":"2.417024","latitude":"48.745971","zone":4,"ignore_itineraire":1},{"id_stop_area":173,"name":"GARE DE RUNGIS LA FRATERNELLE","longitude":"2.352945","latitude":"48.740791","zone":4,"ignore_itineraire":1},{"id_stop_area":174,"name":"GARE DE CHEMIN D ANTONY","longitude":"2.312503","latitude":"48.748048","zone":4,"ignore_itineraire":1},{"id_stop_area":175,"name":"GARE D'AUSTERLITZ","longitude":"2.364651","latitude":"48.843578","zone":1,"ignore_itineraire":0},{"id_stop_area":176,"name":"MUSEE D'ORSAY","longitude":"2.324913","latitude":"48.860936","zone":1,"ignore_itineraire":0},{"id_stop_area":177,"name":"GARE DE L'EST","longitude":"2.358407","latitude":"48.87639","zone":1,"ignore_itineraire":0},{"id_stop_area":178,"name":"GARE DE STADE DE FRANCE ST DENIS","longitude":"2.35245","latitude":"48.917935","zone":2,"ignore_itineraire":0},{"id_stop_area":179,"name":"GARE DE ST DENIS","longitude":"2.345302","latitude":"48.93494","zone":3,"ignore_itineraire":0},{"id_stop_area":180,"name":"GARE DE PIERREFITTE STAINS","longitude":"2.371431","latitude":"48.963761","zone":4,"ignore_itineraire":1},{"id_stop_area":181,"name":"GARE DE SENLIS","longitude":"2.592248","latitude":"49.20611","zone":6,"ignore_itineraire":1},{"id_stop_area":182,"name":"GARE DE CREIL","longitude":"2.468914","latitude":"49.263944","zone":6,"ignore_itineraire":1},{"id_stop_area":183,"name":"GARE DE CHANTILLY GOUVIEUX","longitude":"2.45952","latitude":"49.187334","zone":6,"ignore_itineraire":1},{"id_stop_area":184,"name":"GARE DE GARGES SARCELLES","longitude":"2.390676","latitude":"48.977062","zone":4,"ignore_itineraire":1},{"id_stop_area":185,"name":"GARE DE VILLIERS LE BEL GONESSE ARNOUVILLE","longitude":"2.416613","latitude":"48.993842","zone":4,"ignore_itineraire":1},{"id_stop_area":186,"name":"GARE DES NOUES","longitude":"2.477222","latitude":"49.032643","zone":5,"ignore_itineraire":1},{"id_stop_area":187,"name":"GARE DE GOUSSAINVILLE","longitude":"2.462517","latitude":"49.023697","zone":5,"ignore_itineraire":1},{"id_stop_area":188,"name":"GARE DE LOUVRES","longitude":"2.50144","latitude":"49.049316","zone":5,"ignore_itineraire":1},{"id_stop_area":189,"name":"GARE DE SURVILLIERS FOSSES","longitude":"2.52533","latitude":"49.099537","zone":5,"ignore_itineraire":1},{"id_stop_area":190,"name":"GARE D'ORRY LA VILLE COYE la FORET","longitude":"2.489615","latitude":"49.138717","zone":6,"ignore_itineraire":1},{"id_stop_area":191,"name":"GARE DE LA BORNE BLANCHE","longitude":"2.506144","latitude":"49.126781","zone":6,"ignore_itineraire":1},{"id_stop_area":192,"name":"GARE D'AVILLY ST LEONARD","longitude":"2.515582","latitude":"49.198611","zone":6,"ignore_itineraire":1},{"id_stop_area":193,"name":"GARE DE CRETEIL POMPADOUR","longitude":"2.435767","latitude":"48.773079","zone":3,"ignore_itineraire":0},{"id_stop_area":194,"name":"GARE DE CORBEIL ESSONNES","longitude":"2.472988","latitude":"48.613727","zone":5,"ignore_itineraire":1},{"id_stop_area":195,"name":"GARE DE MAISONS ALFORT ALFORTVILLE","longitude":"2.426514","latitude":"48.801558","zone":3,"ignore_itineraire":0},{"id_stop_area":196,"name":"GARE DU VERT DE MAISONS","longitude":"2.433335","latitude":"48.789506","zone":3,"ignore_itineraire":0},{"id_stop_area":197,"name":"GARE DE VIGNEUX SUR SEINE","longitude":"2.414808","latitude":"48.708232","zone":4,"ignore_itineraire":1},{"id_stop_area":198,"name":"GARE DE VIRY CHATILLON","longitude":"2.38577","latitude":"48.67625","zone":4,"ignore_itineraire":1},{"id_stop_area":199,"name":"GARE DE RIS ORANGIS","longitude":"2.41434","latitude":"48.65907","zone":5,"ignore_itineraire":1},{"id_stop_area":200,"name":"GARE D'ORANGIS BOIS DE L EPINE","longitude":"2.407586","latitude":"48.636613","zone":5,"ignore_itineraire":1},{"id_stop_area":201,"name":"GARE DE GRAND BOURG","longitude":"2.435331","latitude":"48.648489","zone":5,"ignore_itineraire":1},{"id_stop_area":202,"name":"GARE D'EVRY","longitude":"2.452362","latitude":"48.634006","zone":5,"ignore_itineraire":1},{"id_stop_area":203,"name":"GARE DE GRIGNY CENTRE","longitude":"2.395386","latitude":"48.65332","zone":5,"ignore_itineraire":1},{"id_stop_area":204,"name":"GARE D'EVRY COURCOURONNES","longitude":"2.428367","latitude":"48.625616","zone":5,"ignore_itineraire":1},{"id_stop_area":205,"name":"GARE DU BRAS DE FER","longitude":"2.450811","latitude":"48.623658","zone":5,"ignore_itineraire":1},{"id_stop_area":206,"name":"GARE DE MOULIN GALANT","longitude":"2.473101","latitude":"48.586785","zone":5,"ignore_itineraire":1},{"id_stop_area":207,"name":"GARE DE MENNECY","longitude":"2.432977","latitude":"48.570777","zone":5,"ignore_itineraire":1},{"id_stop_area":208,"name":"GARE DE BALLANCOURT","longitude":"2.371237","latitude":"48.532035","zone":5,"ignore_itineraire":1},{"id_stop_area":209,"name":"Gare de la Ferté Alais","longitude":"2.350933","latitude":"48.48472","zone":5,"ignore_itineraire":1},{"id_stop_area":210,"name":"GARE DE BOUTIGNY SUR ESSONNE","longitude":"2.37794","latitude":"48.43474","zone":5,"ignore_itineraire":1},{"id_stop_area":211,"name":"GARE DE MAISSE","longitude":"2.393547","latitude":"48.39286","zone":5,"ignore_itineraire":1},{"id_stop_area":212,"name":"GARE DE BUNO GIRONVILLE","longitude":"2.387357","latitude":"48.370476","zone":5,"ignore_itineraire":1},{"id_stop_area":213,"name":"GARE D'ESSONNES ROBINSON","longitude":"2.4639","latitude":"48.605462","zone":5,"ignore_itineraire":1},{"id_stop_area":214,"name":"GARE DE VILLABE","longitude":"2.460942","latitude":"48.593028","zone":5,"ignore_itineraire":1},{"id_stop_area":215,"name":"GARE DU PLESSIS CHENET","longitude":"2.479469","latitude":"48.573808","zone":5,"ignore_itineraire":1},{"id_stop_area":216,"name":"GARE DE COUDRAY MONTCEAUX","longitude":"2.49256","latitude":"48.566281","zone":5,"ignore_itineraire":1},{"id_stop_area":217,"name":"GARE DE VILLENEUVE TRIAGE","longitude":"2.438113","latitude":"48.74559","zone":4,"ignore_itineraire":1},{"id_stop_area":218,"name":"GARE DE VILLENEUVE ST GEORGES","longitude":"2.446832","latitude":"48.730165","zone":4,"ignore_itineraire":1},{"id_stop_area":219,"name":"Gare de Melun","longitude":"2.654769","latitude":"48.527176","zone":5,"ignore_itineraire":1},{"id_stop_area":220,"name":"GARE DE MONTGERON CROSNE","longitude":"2.462522","latitude":"48.707937","zone":4,"ignore_itineraire":1},{"id_stop_area":221,"name":"GARE DE YERRES","longitude":"2.483315","latitude":"48.706897","zone":4,"ignore_itineraire":1},{"id_stop_area":222,"name":"GARE DE BRUNOY","longitude":"2.505953","latitude":"48.699353","zone":5,"ignore_itineraire":1},{"id_stop_area":223,"name":"GARE DE BOUSSY ST ANTOINE","longitude":"2.533594","latitude":"48.681198","zone":5,"ignore_itineraire":1},{"id_stop_area":224,"name":"GARE DE COMBS LA VILLE QUINCY","longitude":"2.548072","latitude":"48.667684","zone":5,"ignore_itineraire":1},{"id_stop_area":225,"name":"GARE DE LIEUSAINT MOISSY","longitude":"2.568752","latitude":"48.628005","zone":5,"ignore_itineraire":1},{"id_stop_area":226,"name":"GARE DE CESSON","longitude":"2.593887","latitude":"48.564999","zone":5,"ignore_itineraire":1},{"id_stop_area":227,"name":"GARE DU MEE","longitude":"2.624273","latitude":"48.539978","zone":5,"ignore_itineraire":1},{"id_stop_area":228,"name":"GARE DE SAVIGNY LE TEMPLE NANDY","longitude":"2.584482","latitude":"48.595859","zone":5,"ignore_itineraire":1},{"id_stop_area":229,"name":"GARE DE VOSVES","longitude":"2.599304","latitude":"48.515151","zone":5,"ignore_itineraire":1},{"id_stop_area":230,"name":"GARE DE BOISSISE LE ROI","longitude":"2.572534","latitude":"48.529355","zone":5,"ignore_itineraire":1},{"id_stop_area":231,"name":"GARE DE PONTHIERRY PRINGY","longitude":"2.544397","latitude":"48.534971","zone":5,"ignore_itineraire":1},{"id_stop_area":232,"name":"GARE DE ST FARGEAU","longitude":"2.542556","latitude":"48.564568","zone":5,"ignore_itineraire":1},{"id_stop_area":233,"name":"GARE DE BOIGNEVILLE","longitude":"2.378617","latitude":"48.342593","zone":5,"ignore_itineraire":1},{"id_stop_area":234,"name":"GARE DE MALESHERBES","longitude":"2.400663","latitude":"48.294597","zone":6,"ignore_itineraire":1},{"id_stop_area":235,"name":"La Justice","longitude":"2.495933","latitude":"48.563341","zone":6,"ignore_itineraire":1},{"id_stop_area":236,"name":"GARE DE PANTIN","longitude":"2.40005","latitude":"48.897561","zone":2,"ignore_itineraire":0},{"id_stop_area":237,"name":"GARE DE NOISY LE SEC","longitude":"2.459958","latitude":"48.895834","zone":3,"ignore_itineraire":0},{"id_stop_area":238,"name":"GARE DE BONDY","longitude":"2.479114","latitude":"48.894565","zone":3,"ignore_itineraire":0},{"id_stop_area":239,"name":"GARE DU RAINCY VILLEMOMBLE","longitude":"2.511809","latitude":"48.889382","zone":4,"ignore_itineraire":1},{"id_stop_area":240,"name":"GARE DE GAGNY","longitude":"2.525732","latitude":"48.883004","zone":4,"ignore_itineraire":1},{"id_stop_area":241,"name":"GARE DE CHENAY GAGNY","longitude":"2.551692","latitude":"48.876634","zone":4,"ignore_itineraire":1},{"id_stop_area":242,"name":"GARE DE ROSNY BOIS PERRIER","longitude":"2.481143","latitude":"48.882933","zone":3,"ignore_itineraire":0},{"id_stop_area":243,"name":"GARE DE ROSNY SOUS BOIS","longitude":"2.485467","latitude":"48.870146","zone":3,"ignore_itineraire":0},{"id_stop_area":244,"name":"GARE DE TOURNAN","longitude":"2.759393","latitude":"48.739066","zone":5,"ignore_itineraire":1},{"id_stop_area":245,"name":"MAGENTA","longitude":"2.35878","latitude":"48.881447","zone":1,"ignore_itineraire":0},{"id_stop_area":246,"name":"HAUSSMANN ST LAZARE","longitude":"2.327461","latitude":"48.874015","zone":1,"ignore_itineraire":0},{"id_stop_area":247,"name":"GARE DE ROSA PARKS","longitude":"2.372425","latitude":"48.896517","zone":1,"ignore_itineraire":0},{"id_stop_area":248,"name":"GARE DE NOGENT LE PERREUX","longitude":"2.494265","latitude":"48.838705","zone":3,"ignore_itineraire":0},{"id_stop_area":249,"name":"GARE DES BOULLEREAUX CHAMPIGNY","longitude":"2.510602","latitude":"48.825728","zone":5,"ignore_itineraire":1},{"id_stop_area":250,"name":"GARE DE VILLIERS SUR MARNE PLESSIS TREVISE","longitude":"2.542668","latitude":"48.823403","zone":5,"ignore_itineraire":1},{"id_stop_area":251,"name":"GARE DES YVRIS NOISY LE GRAND","longitude":"2.579864","latitude":"48.823291","zone":5,"ignore_itineraire":1},{"id_stop_area":252,"name":"GARE DE GRETZ ARMAINVILLIERS","longitude":"2.728532","latitude":"48.745712","zone":5,"ignore_itineraire":1},{"id_stop_area":253,"name":"GARE D'OZOIR LA FERRIERE","longitude":"2.690021","latitude":"48.770513","zone":5,"ignore_itineraire":1},{"id_stop_area":254,"name":"GARE DE ROISSY EN BRIE","longitude":"2.64996","latitude":"48.795166","zone":5,"ignore_itineraire":1},{"id_stop_area":255,"name":"GARE D'EMERAINVILLE PONTAULT COMBAULT","longitude":"2.619157","latitude":"48.805453","zone":5,"ignore_itineraire":1},{"id_stop_area":256,"name":"GARE DE CHELLES GOURNAY","longitude":"2.583924","latitude":"48.874707","zone":4,"ignore_itineraire":1},{"id_stop_area":257,"name":"Châtelet","longitude":"2.348258","latitude":"48.857827","zone":1,"ignore_itineraire":0},{"id_stop_area":258,"name":"Hôtel de Ville","longitude":"2.350884","latitude":"48.857324","zone":1,"ignore_itineraire":0},{"id_stop_area":259,"name":"PALAIS ROYAL MUSEE DU LOUVRE","longitude":"2.336115","latitude":"48.863158","zone":1,"ignore_itineraire":0},{"id_stop_area":260,"name":"CHAMPS ELYSEES CLEMENCEAU","longitude":"2.313767","latitude":"48.867749","zone":1,"ignore_itineraire":0},{"id_stop_area":261,"name":"Esplanade de la Défense","longitude":"2.249607","latitude":"48.887143","zone":1,"ignore_itineraire":0},{"id_stop_area":262,"name":"Château de Vincennes","longitude":"2.441741","latitude":"48.844338","zone":1,"ignore_itineraire":0},{"id_stop_area":263,"name":"Bérault","longitude":"2.430609","latitude":"48.846654","zone":1,"ignore_itineraire":0},{"id_stop_area":264,"name":"PONT DE NEUILLY","longitude":"2.25981","latitude":"48.885444","zone":1,"ignore_itineraire":0},{"id_stop_area":265,"name":"Saint-Mandé","longitude":"2.418593","latitude":"48.846108","zone":1,"ignore_itineraire":0},{"id_stop_area":266,"name":"ST PAUL","longitude":"2.361821","latitude":"48.854981","zone":1,"ignore_itineraire":0},{"id_stop_area":267,"name":"TUILERIES","longitude":"2.329113","latitude":"48.864783","zone":1,"ignore_itineraire":0},{"id_stop_area":268,"name":"REUILLY / DIDEROT","longitude":"2.38676","latitude":"48.847307","zone":1,"ignore_itineraire":0},{"id_stop_area":269,"name":"Porte de Vincennes","longitude":"2.408496","latitude":"48.846768","zone":1,"ignore_itineraire":0},{"id_stop_area":270,"name":"LOUVRE / RIVOLI","longitude":"2.34167","latitude":"48.860508","zone":1,"ignore_itineraire":0},{"id_stop_area":271,"name":"FRANKLIN D. ROOSEVELT","longitude":"2.309984","latitude":"48.869081","zone":1,"ignore_itineraire":0},{"id_stop_area":272,"name":"GEORGE V","longitude":"2.300856","latitude":"48.871944","zone":1,"ignore_itineraire":0},{"id_stop_area":273,"name":"CONCORDE","longitude":"2.321394","latitude":"48.866488","zone":1,"ignore_itineraire":0},{"id_stop_area":274,"name":"ARGENTINE","longitude":"2.289176","latitude":"48.875715","zone":1,"ignore_itineraire":0},{"id_stop_area":275,"name":"BASTILLE","longitude":"2.369237","latitude":"48.85313","zone":1,"ignore_itineraire":0},{"id_stop_area":276,"name":"LES SABLONS","longitude":"2.271947","latitude":"48.881225","zone":1,"ignore_itineraire":0},{"id_stop_area":277,"name":"JAVEL / ANDRE CITROEN","longitude":"2.277833","latitude":"48.845967","zone":1,"ignore_itineraire":0},{"id_stop_area":278,"name":"PORTE D'AUTEUIL","longitude":"2.25845","latitude":"48.847695","zone":1,"ignore_itineraire":0},{"id_stop_area":279,"name":"Odéon","longitude":"2.338684","latitude":"48.85223","zone":1,"ignore_itineraire":0},{"id_stop_area":280,"name":"JUSSIEU","longitude":"2.353594","latitude":"48.846217","zone":1,"ignore_itineraire":0},{"id_stop_area":281,"name":"LA MOTTE PICQUET / GRENELLE","longitude":"2.298115","latitude":"48.848962","zone":1,"ignore_itineraire":0},{"id_stop_area":282,"name":"DUROC","longitude":"2.316915","latitude":"48.846481","zone":1,"ignore_itineraire":0},{"id_stop_area":283,"name":"MABILLON","longitude":"2.333837","latitude":"48.853348","zone":1,"ignore_itineraire":0},{"id_stop_area":284,"name":"Maubert - Mutualité","longitude":"2.349048","latitude":"48.849689","zone":1,"ignore_itineraire":0},{"id_stop_area":285,"name":"Sèvres-Babylone","longitude":"2.326773","latitude":"48.851283","zone":1,"ignore_itineraire":0},{"id_stop_area":286,"name":"VANEAU","longitude":"2.320718","latitude":"48.848485","zone":1,"ignore_itineraire":0},{"id_stop_area":287,"name":"SEGUR","longitude":"2.307287","latitude":"48.846868","zone":1,"ignore_itineraire":0},{"id_stop_area":288,"name":"MICHEL ANGE-MOLITOR","longitude":"2.262156","latitude":"48.845188","zone":1,"ignore_itineraire":0},{"id_stop_area":289,"name":"MIRABEAU","longitude":"2.272794","latitude":"48.846526","zone":1,"ignore_itineraire":0},{"id_stop_area":290,"name":"CLUNY / LA SORBONNE","longitude":"2.344391","latitude":"48.850397","zone":1,"ignore_itineraire":0},{"id_stop_area":291,"name":"CARDINAL LEMOINE","longitude":"2.351476","latitude":"48.846595","zone":1,"ignore_itineraire":0},{"id_stop_area":292,"name":"CHARDON / LAGACHE","longitude":"2.266621","latitude":"48.844918","zone":1,"ignore_itineraire":0},{"id_stop_area":293,"name":"CHARLES MICHELS","longitude":"2.286297","latitude":"48.846423","zone":1,"ignore_itineraire":0},{"id_stop_area":294,"name":"AVENUE EMILE ZOLA","longitude":"2.294809","latitude":"48.846942","zone":1,"ignore_itineraire":0},{"id_stop_area":295,"name":"BOULOGNE - JEAN JAURES","longitude":"2.238806","latitude":"48.841964","zone":1,"ignore_itineraire":0},{"id_stop_area":296,"name":"BOULOGNE / PONT DE ST CLOUD","longitude":"2.228262","latitude":"48.840707","zone":1,"ignore_itineraire":0},{"id_stop_area":297,"name":"Eglise d'Auteuil","longitude":"2.269758","latitude":"48.847742","zone":1,"ignore_itineraire":0},{"id_stop_area":298,"name":"MICHEL ANGE-AUTEUIL","longitude":"2.264733","latitude":"48.848288","zone":1,"ignore_itineraire":0},{"id_stop_area":299,"name":"République","longitude":"2.363304","latitude":"48.867475","zone":1,"ignore_itineraire":0},{"id_stop_area":300,"name":"Arts et Métiers","longitude":"2.356495","latitude":"48.865487","zone":1,"ignore_itineraire":0},{"id_stop_area":301,"name":"Place des Fêtes","longitude":"2.393196","latitude":"48.876871","zone":1,"ignore_itineraire":0},{"id_stop_area":302,"name":"GONCOURT / HÔPITAL ST LOUIS","longitude":"2.370828","latitude":"48.86998","zone":1,"ignore_itineraire":0},{"id_stop_area":303,"name":"Porte des Lilas","longitude":"2.407492","latitude":"48.876911","zone":1,"ignore_itineraire":0},{"id_stop_area":304,"name":"Pyrénées","longitude":"2.38526","latitude":"48.873896","zone":1,"ignore_itineraire":0},{"id_stop_area":305,"name":"RAMBUTEAU","longitude":"2.35334","latitude":"48.861771","zone":1,"ignore_itineraire":0},{"id_stop_area":306,"name":"Télégraphe","longitude":"2.39734","latitude":"48.875418","zone":1,"ignore_itineraire":0},{"id_stop_area":307,"name":"JOURDAIN","longitude":"2.389105","latitude":"48.87441","zone":1,"ignore_itineraire":0},{"id_stop_area":308,"name":"BELLEVILLE","longitude":"2.377118","latitude":"48.872182","zone":1,"ignore_itineraire":0},{"id_stop_area":309,"name":"Mairie des Lilas","longitude":"2.418039","latitude":"48.880017","zone":1,"ignore_itineraire":0},{"id_stop_area":310,"name":"VOLONTAIRES","longitude":"2.308182","latitude":"48.84148","zone":1,"ignore_itineraire":0},{"id_stop_area":311,"name":"RENNES","longitude":"2.328533","latitude":"48.848568","zone":1,"ignore_itineraire":0},{"id_stop_area":312,"name":"RUE DU BAC","longitude":"2.325551","latitude":"48.856072","zone":1,"ignore_itineraire":0},{"id_stop_area":313,"name":"ST GEORGES","longitude":"2.337614","latitude":"48.878456","zone":1,"ignore_itineraire":0},{"id_stop_area":314,"name":"Porte de la Chapelle","longitude":"2.358808","latitude":"48.898127","zone":1,"ignore_itineraire":0},{"id_stop_area":315,"name":"Porte de Versailles","longitude":"2.288046","latitude":"48.832732","zone":1,"ignore_itineraire":0},{"id_stop_area":316,"name":"NOTRE-DAME DE LORETTE","longitude":"2.337548","latitude":"48.875892","zone":1,"ignore_itineraire":0},{"id_stop_area":317,"name":"NOTRE-DAME DES CHAMPS","longitude":"2.329743","latitude":"48.845171","zone":1,"ignore_itineraire":0},{"id_stop_area":318,"name":"MARX DORMOY","longitude":"2.360223","latitude":"48.890642","zone":1,"ignore_itineraire":0},{"id_stop_area":319,"name":"JULES JOFFRIN","longitude":"2.344347","latitude":"48.8925","zone":1,"ignore_itineraire":0},{"id_stop_area":320,"name":"LAMARCK / CAULAINCOURT","longitude":"2.339692","latitude":"48.889649","zone":1,"ignore_itineraire":0},{"id_stop_area":321,"name":"CONVENTION","longitude":"2.29699","latitude":"48.837142","zone":1,"ignore_itineraire":0},{"id_stop_area":322,"name":"ABBESSES","longitude":"2.338373","latitude":"48.884543","zone":1,"ignore_itineraire":0},{"id_stop_area":323,"name":"MAIRIE D'ISSY","longitude":"2.273577","latitude":"48.8242","zone":1,"ignore_itineraire":0},{"id_stop_area":324,"name":"CORENTIN CELTON","longitude":"2.278399","latitude":"48.826933","zone":1,"ignore_itineraire":0},{"id_stop_area":325,"name":"Solférino","longitude":"2.323024","latitude":"48.858535","zone":1,"ignore_itineraire":0},{"id_stop_area":326,"name":"Trinité d'Estienne d'Orves","longitude":"2.33166","latitude":"48.876275","zone":1,"ignore_itineraire":0},{"id_stop_area":327,"name":"Vaugirard (Adolphe Chérioux)","longitude":"2.300831","latitude":"48.839271","zone":1,"ignore_itineraire":0},{"id_stop_area":328,"name":"Falguière","longitude":"2.313976","latitude":"48.840394","zone":1,"ignore_itineraire":0},{"id_stop_area":329,"name":"Assemblée Nationale","longitude":"2.320222","latitude":"48.861816","zone":1,"ignore_itineraire":0},{"id_stop_area":330,"name":"Front Populaire","longitude":"2.367579","latitude":"48.906552","zone":1,"ignore_itineraire":0},{"id_stop_area":331,"name":"GARE ST LAZARE","longitude":"2.324733","latitude":"48.875858","zone":1,"ignore_itineraire":0},{"id_stop_area":332,"name":"GARE MONTPARNASSE","longitude":"2.321782","latitude":"48.842468","zone":1,"ignore_itineraire":0},{"id_stop_area":333,"name":"MARCADET / POISSONNIERS","longitude":"2.347801","latitude":"48.892046","zone":1,"ignore_itineraire":0},{"id_stop_area":334,"name":"MADELEINE","longitude":"2.324284","latitude":"48.869674","zone":1,"ignore_itineraire":0},{"id_stop_area":335,"name":"PIGALLE","longitude":"2.337317","latitude":"48.882291","zone":1,"ignore_itineraire":0},{"id_stop_area":336,"name":"PASTEUR","longitude":"2.31299","latitude":"48.842269","zone":1,"ignore_itineraire":0},{"id_stop_area":337,"name":"MIROMESNIL","longitude":"2.314756","latitude":"48.87449","zone":1,"ignore_itineraire":0},{"id_stop_area":338,"name":"ST FRANCOIS XAVIER","longitude":"2.31403","latitude":"48.851558","zone":1,"ignore_itineraire":0},{"id_stop_area":339,"name":"PORTE DE ST OUEN","longitude":"2.329418","latitude":"48.898213","zone":1,"ignore_itineraire":0},{"id_stop_area":340,"name":"PORTE DE VANVES","longitude":"2.30506","latitude":"48.827419","zone":1,"ignore_itineraire":0},{"id_stop_area":341,"name":"PLAISANCE","longitude":"2.314262","latitude":"48.833326","zone":1,"ignore_itineraire":0},{"id_stop_area":342,"name":"VARENNE","longitude":"2.317228","latitude":"48.857769","zone":1,"ignore_itineraire":0},{"id_stop_area":343,"name":"LA FOURCHE","longitude":"2.32574","latitude":"48.887177","zone":1,"ignore_itineraire":0},{"id_stop_area":344,"name":"BROCHANT","longitude":"2.319172","latitude":"48.89116","zone":1,"ignore_itineraire":0},{"id_stop_area":345,"name":"Malakoff / Plateau de Vanves","longitude":"2.298086","latitude":"48.823207","zone":1,"ignore_itineraire":0},{"id_stop_area":346,"name":"Malakoff / Rue Etienne Dolet","longitude":"2.297394","latitude":"48.814906","zone":1,"ignore_itineraire":0},{"id_stop_area":347,"name":"ST DENIS UNIVERSITE","longitude":"2.364072","latitude":"48.945721","zone":1,"ignore_itineraire":0},{"id_stop_area":348,"name":"BASILIQUE DE SAINT-DENIS","longitude":"2.360261","latitude":"48.937169","zone":1,"ignore_itineraire":0},{"id_stop_area":349,"name":"ST DENIS / PORTE DE PARIS","longitude":"2.356591","latitude":"48.930024","zone":1,"ignore_itineraire":0},{"id_stop_area":350,"name":"GARIBALDI","longitude":"2.332195","latitude":"48.906932","zone":1,"ignore_itineraire":0},{"id_stop_area":351,"name":"CARREFOUR PLEYEL","longitude":"2.343658","latitude":"48.919722","zone":1,"ignore_itineraire":0},{"id_stop_area":352,"name":"MAIRIE DE ST OUEN","longitude":"2.333626","latitude":"48.911745","zone":1,"ignore_itineraire":0},{"id_stop_area":353,"name":"Asnieres Gennevilliers Les Courtilles","longitude":"2.283404","latitude":"48.930226","zone":1,"ignore_itineraire":0},{"id_stop_area":354,"name":"Mairie de Clichy","longitude":"2.305243","latitude":"48.903465","zone":1,"ignore_itineraire":0},{"id_stop_area":355,"name":"Les Agnettes","longitude":"2.285531","latitude":"48.922632","zone":1,"ignore_itineraire":0},{"id_stop_area":356,"name":"Pernéty","longitude":"2.317754","latitude":"48.833764","zone":1,"ignore_itineraire":0},{"id_stop_area":357,"name":"Liège","longitude":"2.327617","latitude":"48.880127","zone":1,"ignore_itineraire":0},{"id_stop_area":358,"name":"Guy-Môquet","longitude":"2.32784","latitude":"48.89306","zone":1,"ignore_itineraire":0},{"id_stop_area":359,"name":"GAITE","longitude":"2.322473","latitude":"48.838151","zone":1,"ignore_itineraire":0},{"id_stop_area":360,"name":"GABRIEL PERI ASNIERES GENNEVILLIERS","longitude":"2.294779","latitude":"48.916296","zone":1,"ignore_itineraire":0},{"id_stop_area":361,"name":"Châtillon Montrouge","longitude":"2.300763","latitude":"48.810755","zone":1,"ignore_itineraire":0},{"id_stop_area":362,"name":"PLACE DE CLICHY","longitude":"2.327547","latitude":"48.883424","zone":1,"ignore_itineraire":0},{"id_stop_area":363,"name":"Olympiades","longitude":"2.367506","latitude":"48.826571","zone":1,"ignore_itineraire":0},{"id_stop_area":364,"name":"PYRAMIDES","longitude":"2.334338","latitude":"48.8668","zone":1,"ignore_itineraire":0},{"id_stop_area":365,"name":"BERCY","longitude":"2.380359","latitude":"48.839848","zone":1,"ignore_itineraire":0},{"id_stop_area":366,"name":"COUR ST EMILION","longitude":"2.387939","latitude":"48.832008","zone":1,"ignore_itineraire":0},{"id_stop_area":367,"name":"PERE LACHAISE","longitude":"2.387813","latitude":"48.862524","zone":1,"ignore_itineraire":0},{"id_stop_area":368,"name":"BARBES / ROCHECHOUART","longitude":"2.349465","latitude":"48.883783","zone":1,"ignore_itineraire":0},{"id_stop_area":369,"name":"Jaurès","longitude":"2.370652","latitude":"48.882711","zone":1,"ignore_itineraire":0},{"id_stop_area":370,"name":"Ménilmontant","longitude":"2.383849","latitude":"48.866351","zone":1,"ignore_itineraire":0},{"id_stop_area":371,"name":"PORTE DAUPHINE / MARECHAL DE LATTRE DE TASSIGNY","longitude":"2.275458","latitude":"48.871391","zone":1,"ignore_itineraire":0},{"id_stop_area":372,"name":"LA CHAPELLE","longitude":"2.359993","latitude":"48.884483","zone":1,"ignore_itineraire":0},{"id_stop_area":373,"name":"STALINGRAD","longitude":"2.368309","latitude":"48.884181","zone":1,"ignore_itineraire":0},{"id_stop_area":374,"name":"VILLIERS","longitude":"2.316152","latitude":"48.881498","zone":1,"ignore_itineraire":0},{"id_stop_area":375,"name":"TERNES","longitude":"2.296983","latitude":"48.878465","zone":1,"ignore_itineraire":0},{"id_stop_area":376,"name":"VICTOR HUGO","longitude":"2.285452","latitude":"48.869798","zone":1,"ignore_itineraire":0},{"id_stop_area":377,"name":"ROME","longitude":"2.320614","latitude":"48.882601","zone":1,"ignore_itineraire":0},{"id_stop_area":378,"name":"PHILIPPE AUGUSTE","longitude":"2.389754","latitude":"48.858381","zone":1,"ignore_itineraire":0},{"id_stop_area":379,"name":"MONCEAU","longitude":"2.309285","latitude":"48.880505","zone":1,"ignore_itineraire":0},{"id_stop_area":380,"name":"COLONEL FABIEN","longitude":"2.370738","latitude":"48.878149","zone":1,"ignore_itineraire":0},{"id_stop_area":381,"name":"COURCELLES","longitude":"2.303423","latitude":"48.879239","zone":1,"ignore_itineraire":0},{"id_stop_area":382,"name":"ALEXANDRE DUMAS","longitude":"2.393833","latitude":"48.856306","zone":1,"ignore_itineraire":0},{"id_stop_area":383,"name":"ANVERS","longitude":"2.344169","latitude":"48.882869","zone":1,"ignore_itineraire":0},{"id_stop_area":384,"name":"AVRON","longitude":"2.397845","latitude":"48.851181","zone":1,"ignore_itineraire":0},{"id_stop_area":385,"name":"BLANCHE","longitude":"2.332397","latitude":"48.883279","zone":1,"ignore_itineraire":0},{"id_stop_area":386,"name":"COURONNES","longitude":"2.380619","latitude":"48.86902","zone":1,"ignore_itineraire":0},{"id_stop_area":387,"name":"REAUMUR / SEBASTOPOL","longitude":"2.352537","latitude":"48.86615","zone":1,"ignore_itineraire":0},{"id_stop_area":388,"name":"Pont de Levallois - Bécon","longitude":"2.280494","latitude":"48.897065","zone":1,"ignore_itineraire":0},{"id_stop_area":389,"name":"ST MAUR","longitude":"2.380919","latitude":"48.864092","zone":1,"ignore_itineraire":0},{"id_stop_area":390,"name":"Opéra","longitude":"2.332301","latitude":"48.870315","zone":1,"ignore_itineraire":0},{"id_stop_area":391,"name":"PEREIRE","longitude":"2.296555","latitude":"48.885503","zone":1,"ignore_itineraire":0},{"id_stop_area":392,"name":"Gambetta","longitude":"2.398284","latitude":"48.865109","zone":1,"ignore_itineraire":0},{"id_stop_area":393,"name":"PARMENTIER","longitude":"2.374633","latitude":"48.865228","zone":1,"ignore_itineraire":0},{"id_stop_area":394,"name":"PORTE DE BAGNOLET","longitude":"2.409245","latitude":"48.864137","zone":1,"ignore_itineraire":0},{"id_stop_area":395,"name":"PORTE DE CHAMPERRET","longitude":"2.292584","latitude":"48.885824","zone":1,"ignore_itineraire":0},{"id_stop_area":396,"name":"QUATRE SEPTEMBRE","longitude":"2.337897","latitude":"48.869225","zone":1,"ignore_itineraire":0},{"id_stop_area":397,"name":"TEMPLE","longitude":"2.360806","latitude":"48.865814","zone":1,"ignore_itineraire":0},{"id_stop_area":398,"name":"WAGRAM","longitude":"2.304868","latitude":"48.883691","zone":1,"ignore_itineraire":0},{"id_stop_area":399,"name":"SENTIER","longitude":"2.347095","latitude":"48.86738","zone":1,"ignore_itineraire":0},{"id_stop_area":400,"name":"MALESHERBES","longitude":"2.310224","latitude":"48.882908","zone":1,"ignore_itineraire":0},{"id_stop_area":401,"name":"HAVRE CAUMARTIN","longitude":"2.327738","latitude":"48.873422","zone":1,"ignore_itineraire":0},{"id_stop_area":402,"name":"EUROPE","longitude":"2.322993","latitude":"48.879063","zone":1,"ignore_itineraire":0},{"id_stop_area":403,"name":"BOURSE","longitude":"2.34089","latitude":"48.868684","zone":1,"ignore_itineraire":0},{"id_stop_area":404,"name":"LOUISE MICHEL","longitude":"2.288073","latitude":"48.889273","zone":1,"ignore_itineraire":0},{"id_stop_area":405,"name":"ANATOLE FRANCE","longitude":"2.284892","latitude":"48.891914","zone":1,"ignore_itineraire":0},{"id_stop_area":406,"name":"Gallieni","longitude":"2.416728","latitude":"48.863385","zone":1,"ignore_itineraire":0},{"id_stop_area":407,"name":"ST FARGEAU","longitude":"2.40442","latitude":"48.871864","zone":1,"ignore_itineraire":0},{"id_stop_area":408,"name":"Pelleport","longitude":"2.402312","latitude":"48.86722","zone":1,"ignore_itineraire":0},{"id_stop_area":409,"name":"SIMPLON","longitude":"2.346614","latitude":"48.895109","zone":1,"ignore_itineraire":0},{"id_stop_area":410,"name":"St Germain des Prés","longitude":"2.333065","latitude":"48.85345","zone":1,"ignore_itineraire":0},{"id_stop_area":411,"name":"PORTE D'ORLEANS","longitude":"2.325428","latitude":"48.822554","zone":1,"ignore_itineraire":0},{"id_stop_area":412,"name":"Cité","longitude":"2.346058","latitude":"48.855484","zone":1,"ignore_itineraire":0},{"id_stop_area":413,"name":"Château Rouge","longitude":"2.348773","latitude":"48.887373","zone":1,"ignore_itineraire":0},{"id_stop_area":414,"name":"Château d'Eau","longitude":"2.356534","latitude":"48.872412","zone":1,"ignore_itineraire":0},{"id_stop_area":415,"name":"Alésia","longitude":"2.32688","latitude":"48.828022","zone":1,"ignore_itineraire":0},{"id_stop_area":416,"name":"Mairie de Montrouge","longitude":"2.320179","latitude":"48.818448","zone":1,"ignore_itineraire":0},{"id_stop_area":417,"name":"LES HALLES","longitude":"2.346495","latitude":"48.862015","zone":1,"ignore_itineraire":0},{"id_stop_area":418,"name":"RASPAIL","longitude":"2.330714","latitude":"48.838814","zone":1,"ignore_itineraire":0},{"id_stop_area":419,"name":"STRASBOURG ST DENIS","longitude":"2.354643","latitude":"48.86914","zone":1,"ignore_itineraire":0},{"id_stop_area":420,"name":"VAVIN","longitude":"2.329229","latitude":"48.841941","zone":1,"ignore_itineraire":0},{"id_stop_area":421,"name":"ST PLACIDE","longitude":"2.32833","latitude":"48.847249","zone":1,"ignore_itineraire":0},{"id_stop_area":422,"name":"ST SULPICE","longitude":"2.331493","latitude":"48.851465","zone":1,"ignore_itineraire":0},{"id_stop_area":423,"name":"Porte de Clignancourt","longitude":"2.344698","latitude":"48.898098","zone":1,"ignore_itineraire":0},{"id_stop_area":424,"name":"MOUTON / DUVERNET","longitude":"2.330167","latitude":"48.831628","zone":1,"ignore_itineraire":0},{"id_stop_area":425,"name":"ETIENNE MARCEL","longitude":"2.349063","latitude":"48.863837","zone":1,"ignore_itineraire":0},{"id_stop_area":426,"name":"Porte de Pantin","longitude":"2.392998","latitude":"48.88886","zone":1,"ignore_itineraire":0},{"id_stop_area":427,"name":"Quai de la Rapée","longitude":"2.368221","latitude":"48.845537","zone":1,"ignore_itineraire":0},{"id_stop_area":428,"name":"Laumière","longitude":"2.37971","latitude":"48.884622","zone":1,"ignore_itineraire":0},{"id_stop_area":429,"name":"Bréguet / Sabin","longitude":"2.371337","latitude":"48.855598","zone":1,"ignore_itineraire":0},{"id_stop_area":430,"name":"Place d'Italie","longitude":"2.355262","latitude":"48.830688","zone":1,"ignore_itineraire":0},{"id_stop_area":431,"name":"ST MARCEL","longitude":"2.361035","latitude":"48.839281","zone":1,"ignore_itineraire":0},{"id_stop_area":432,"name":"RICHARD LENOIR","longitude":"2.374192","latitude":"48.85867","zone":1,"ignore_itineraire":0},{"id_stop_area":433,"name":"OURCQ","longitude":"2.385994","latitude":"48.887308","zone":1,"ignore_itineraire":0},{"id_stop_area":434,"name":"OBERKAMPF","longitude":"2.367532","latitude":"48.864687","zone":1,"ignore_itineraire":0},{"id_stop_area":435,"name":"CAMPO FORMIO","longitude":"2.358376","latitude":"48.835286","zone":1,"ignore_itineraire":0},{"id_stop_area":436,"name":"JACQUES BONSERGENT","longitude":"2.360802","latitude":"48.870897","zone":1,"ignore_itineraire":0},{"id_stop_area":437,"name":"Bobigny / Pablo Picasso","longitude":"2.449373","latitude":"48.907029","zone":1,"ignore_itineraire":0},{"id_stop_area":438,"name":"Bobigny - Pantin - Raymond Queneau","longitude":"2.425557","latitude":"48.895399","zone":1,"ignore_itineraire":0},{"id_stop_area":439,"name":"Eglise","longitude":"2.412537","latitude":"48.893196","zone":1,"ignore_itineraire":0},{"id_stop_area":440,"name":"HOCHE","longitude":"2.402865","latitude":"48.891451","zone":1,"ignore_itineraire":0},{"id_stop_area":441,"name":"DAUMESNIL","longitude":"2.395407","latitude":"48.839507","zone":1,"ignore_itineraire":0},{"id_stop_area":442,"name":"TROCADERO","longitude":"2.287658","latitude":"48.863472","zone":1,"ignore_itineraire":0},{"id_stop_area":443,"name":"Sèvres / Lecourbe","longitude":"2.310767","latitude":"48.844896","zone":1,"ignore_itineraire":0},{"id_stop_area":444,"name":"Kléber","longitude":"2.293349","latitude":"48.871309","zone":1,"ignore_itineraire":0},{"id_stop_area":445,"name":"GLACIERE","longitude":"2.343759","latitude":"48.830899","zone":1,"ignore_itineraire":0},{"id_stop_area":446,"name":"Boissière","longitude":"2.290048","latitude":"48.866928","zone":1,"ignore_itineraire":0},{"id_stop_area":447,"name":"BIR HAKEIM","longitude":"2.289246","latitude":"48.853965","zone":1,"ignore_itineraire":0},{"id_stop_area":448,"name":"ST JACQUES","longitude":"2.336701","latitude":"48.832994","zone":1,"ignore_itineraire":0},{"id_stop_area":449,"name":"QUAI DE LA GARE","longitude":"2.373159","latitude":"48.837109","zone":1,"ignore_itineraire":0},{"id_stop_area":450,"name":"PASSY","longitude":"2.286167","latitude":"48.857254","zone":1,"ignore_itineraire":0},{"id_stop_area":451,"name":"PICPUS","longitude":"2.402411","latitude":"48.845193","zone":1,"ignore_itineraire":0},{"id_stop_area":452,"name":"NATIONALE","longitude":"2.362286","latitude":"48.832845","zone":1,"ignore_itineraire":0},{"id_stop_area":453,"name":"DUPLEIX","longitude":"2.291592","latitude":"48.850811","zone":1,"ignore_itineraire":0},{"id_stop_area":454,"name":"EDGAR QUINET","longitude":"2.326421","latitude":"48.840571","zone":1,"ignore_itineraire":0},{"id_stop_area":455,"name":"CHEVALERET","longitude":"2.36811","latitude":"48.834968","zone":1,"ignore_itineraire":0},{"id_stop_area":456,"name":"CORVISART","longitude":"2.351943","latitude":"48.828661","zone":1,"ignore_itineraire":0},{"id_stop_area":457,"name":"CAMBRONNE","longitude":"2.301151","latitude":"48.847891","zone":1,"ignore_itineraire":0},{"id_stop_area":458,"name":"BEL AIR","longitude":"2.400284","latitude":"48.840803","zone":1,"ignore_itineraire":0},{"id_stop_area":459,"name":"DUGOMMIER","longitude":"2.388645","latitude":"48.838918","zone":1,"ignore_itineraire":0},{"id_stop_area":460,"name":"Pierre et Marie Curie","longitude":"2.376981","latitude":"48.815614","zone":1,"ignore_itineraire":0},{"id_stop_area":461,"name":"CHAUSSEE D'ANTIN / LA FAYETTE","longitude":"2.333276","latitude":"48.87316","zone":1,"ignore_itineraire":0},{"id_stop_area":462,"name":"Crimée","longitude":"2.376929","latitude":"48.890459","zone":1,"ignore_itineraire":0},{"id_stop_area":463,"name":"Château Landon","longitude":"2.362725","latitude":"48.88018","zone":1,"ignore_itineraire":0},{"id_stop_area":464,"name":"Poissonnière","longitude":"2.350213","latitude":"48.877781","zone":1,"ignore_itineraire":0},{"id_stop_area":465,"name":"PONT MARIE","longitude":"2.356812","latitude":"48.853056","zone":1,"ignore_itineraire":0},{"id_stop_area":466,"name":"Le Kremlin Bicêtre","longitude":"2.361842","latitude":"48.811032","zone":1,"ignore_itineraire":0},{"id_stop_area":467,"name":"VILLEJUIF / PAUL VAILLANT COUTURIER / Hôpital Paul Brousse","longitude":"2.368487","latitude":"48.796011","zone":1,"ignore_itineraire":0},{"id_stop_area":468,"name":"VILLEJUIF / LEO LAGRANGE","longitude":"2.365098","latitude":"48.804007","zone":1,"ignore_itineraire":0},{"id_stop_area":469,"name":"Porte de Choisy","longitude":"2.364266","latitude":"48.819537","zone":1,"ignore_itineraire":0},{"id_stop_area":470,"name":"Pont Neuf / Quai du Louvre","longitude":"2.342103","latitude":"48.858025","zone":1,"ignore_itineraire":0},{"id_stop_area":471,"name":"PORTE D'ITALIE","longitude":"2.359726","latitude":"48.818801","zone":1,"ignore_itineraire":0},{"id_stop_area":472,"name":"PLACE MONGE","longitude":"2.353256","latitude":"48.843527","zone":1,"ignore_itineraire":0},{"id_stop_area":473,"name":"SULLY-MORLAND","longitude":"2.361487","latitude":"48.850986","zone":1,"ignore_itineraire":0},{"id_stop_area":474,"name":"ITALIE / TOLBIAC","longitude":"2.356938","latitude":"48.826044","zone":1,"ignore_itineraire":0},{"id_stop_area":475,"name":"RIQUET","longitude":"2.37168","latitude":"48.888893","zone":1,"ignore_itineraire":0},{"id_stop_area":476,"name":"PORTE D'IVRY","longitude":"2.370974","latitude":"48.822164","zone":1,"ignore_itineraire":0},{"id_stop_area":477,"name":"PORTE DE LA VILLETTE","longitude":"2.386434","latitude":"48.897749","zone":1,"ignore_itineraire":0},{"id_stop_area":478,"name":"LE PELETIER","longitude":"2.339605","latitude":"48.875247","zone":1,"ignore_itineraire":0},{"id_stop_area":479,"name":"LES GOBELINS","longitude":"2.35181","latitude":"48.836684","zone":1,"ignore_itineraire":0},{"id_stop_area":480,"name":"Louis Blanc","longitude":"2.365856","latitude":"48.880865","zone":1,"ignore_itineraire":0},{"id_stop_area":481,"name":"MAISON BLANCHE","longitude":"2.357962","latitude":"48.822488","zone":1,"ignore_itineraire":0},{"id_stop_area":482,"name":"CORENTIN CARIOU","longitude":"2.382135","latitude":"48.894615","zone":1,"ignore_itineraire":0},{"id_stop_area":483,"name":"CADET","longitude":"2.344427","latitude":"48.876057","zone":1,"ignore_itineraire":0},{"id_stop_area":484,"name":"CENSIER DAUBENTON","longitude":"2.35186","latitude":"48.840864","zone":1,"ignore_itineraire":0},{"id_stop_area":485,"name":"FORT D'AUBERVILLIERS","longitude":"2.404096","latitude":"48.914493","zone":1,"ignore_itineraire":0},{"id_stop_area":486,"name":"Aubervilliers / Pantin","longitude":"2.392266","latitude":"48.903687","zone":1,"ignore_itineraire":0},{"id_stop_area":487,"name":"LA COURNEUVE 8 MAI 1945","longitude":"2.41064","latitude":"48.920749","zone":1,"ignore_itineraire":0},{"id_stop_area":488,"name":"Mairie d'Ivry","longitude":"2.385167","latitude":"48.811734","zone":1,"ignore_itineraire":0},{"id_stop_area":489,"name":"Villejuif-Louis Aragon","longitude":"2.367459","latitude":"48.787754","zone":1,"ignore_itineraire":0},{"id_stop_area":490,"name":"Pré St Gervais","longitude":"2.398782","latitude":"48.879764","zone":1,"ignore_itineraire":0},{"id_stop_area":491,"name":"DANUBE","longitude":"2.394411","latitude":"48.882273","zone":1,"ignore_itineraire":0},{"id_stop_area":492,"name":"BOTZARIS","longitude":"2.389621","latitude":"48.87943","zone":1,"ignore_itineraire":0},{"id_stop_area":493,"name":"BUTTES CHAUMONT","longitude":"2.38123","latitude":"48.877807","zone":1,"ignore_itineraire":0},{"id_stop_area":494,"name":"BOLIVAR","longitude":"2.374119","latitude":"48.879508","zone":1,"ignore_itineraire":0},{"id_stop_area":495,"name":"St Sébastien Froissart","longitude":"2.366175","latitude":"48.860985","zone":1,"ignore_itineraire":0},{"id_stop_area":496,"name":"Porte Dorée","longitude":"2.406525","latitude":"48.835571","zone":1,"ignore_itineraire":0},{"id_stop_area":497,"name":"Félix Faure","longitude":"2.289973","latitude":"48.842495","zone":1,"ignore_itineraire":0},{"id_stop_area":498,"name":"Liberté","longitude":"2.405928","latitude":"48.825964","zone":1,"ignore_itineraire":0},{"id_stop_area":499,"name":"Créteil l'Echat / Hôpital Henri Mondor","longitude":"2.449347","latitude":"48.796039","zone":1,"ignore_itineraire":0},{"id_stop_area":500,"name":"Créteil Université","longitude":"2.450093","latitude":"48.788857","zone":1,"ignore_itineraire":0},{"id_stop_area":501,"name":"Ecole Vétérinaire de Maisons Alfort","longitude":"2.421113","latitude":"48.814835","zone":1,"ignore_itineraire":0},{"id_stop_area":502,"name":"La Tour-Maubourg","longitude":"2.309654","latitude":"48.857314","zone":1,"ignore_itineraire":0},{"id_stop_area":503,"name":"Pointe du Lac","longitude":"2.464086","latitude":"48.768894","zone":1,"ignore_itineraire":0},{"id_stop_area":504,"name":"Créteil Préfecture","longitude":"2.459947","latitude":"48.779877","zone":1,"ignore_itineraire":0},{"id_stop_area":505,"name":"RICHELIEU-DROUOT","longitude":"2.339677","latitude":"48.871973","zone":1,"ignore_itineraire":0},{"id_stop_area":506,"name":"GRANDS BOULEVARDS (RUE MONTMARTRE)","longitude":"2.343077","latitude":"48.871168","zone":1,"ignore_itineraire":0},{"id_stop_area":507,"name":"Porte de Charenton","longitude":"2.397691","latitude":"48.832302","zone":1,"ignore_itineraire":0},{"id_stop_area":508,"name":"MICHEL BIZOT","longitude":"2.402839","latitude":"48.836946","zone":1,"ignore_itineraire":0},{"id_stop_area":509,"name":"MONTGALLET","longitude":"2.390107","latitude":"48.844166","zone":1,"ignore_itineraire":0},{"id_stop_area":510,"name":"LEDRU / ROLLIN","longitude":"2.376683","latitude":"48.85111","zone":1,"ignore_itineraire":0},{"id_stop_area":511,"name":"ECOLE MILITAIRE","longitude":"2.305623","latitude":"48.854227","zone":1,"ignore_itineraire":0},{"id_stop_area":512,"name":"FAIDHERBE / CHALIGNY","longitude":"2.383952","latitude":"48.849258","zone":1,"ignore_itineraire":0},{"id_stop_area":513,"name":"FILLES DU CALVAIRE","longitude":"2.366765","latitude":"48.863081","zone":1,"ignore_itineraire":0},{"id_stop_area":514,"name":"Chemin Vert","longitude":"2.372362","latitude":"48.858558","zone":1,"ignore_itineraire":0},{"id_stop_area":515,"name":"COMMERCE","longitude":"2.291216","latitude":"48.844808","zone":1,"ignore_itineraire":0},{"id_stop_area":516,"name":"BONNE NOUVELLE","longitude":"2.3483","latitude":"48.870643","zone":1,"ignore_itineraire":0},{"id_stop_area":517,"name":"BOUCICAUT","longitude":"2.287942","latitude":"48.841028","zone":1,"ignore_itineraire":0},{"id_stop_area":518,"name":"Balard","longitude":"2.27859","latitude":"48.836451","zone":1,"ignore_itineraire":0},{"id_stop_area":519,"name":"LOURMEL","longitude":"2.282253","latitude":"48.838882","zone":1,"ignore_itineraire":0},{"id_stop_area":520,"name":"CHARENTON / ECOLES","longitude":"2.41432","latitude":"48.821464","zone":1,"ignore_itineraire":0},{"id_stop_area":521,"name":"MAISONS ALFORT LES JUILLIOTTES","longitude":"2.444311","latitude":"48.803658","zone":1,"ignore_itineraire":0},{"id_stop_area":522,"name":"MAISONS ALFORT / STADE","longitude":"2.436626","latitude":"48.808682","zone":1,"ignore_itineraire":0},{"id_stop_area":523,"name":"PORTE DE ST CLOUD","longitude":"2.256716","latitude":"48.838039","zone":1,"ignore_itineraire":0},{"id_stop_area":524,"name":"RANELAGH","longitude":"2.269994","latitude":"48.856454","zone":1,"ignore_itineraire":0},{"id_stop_area":525,"name":"JASMIN","longitude":"2.267952","latitude":"48.85219","zone":1,"ignore_itineraire":0},{"id_stop_area":526,"name":"EXELMANS","longitude":"2.260332","latitude":"48.843175","zone":1,"ignore_itineraire":0},{"id_stop_area":527,"name":"BUZENVAL","longitude":"2.401052","latitude":"48.852466","zone":1,"ignore_itineraire":0},{"id_stop_area":528,"name":"CHARONNE","longitude":"2.385694","latitude":"48.854554","zone":1,"ignore_itineraire":0},{"id_stop_area":529,"name":"ALMA / MARCEAU","longitude":"2.301698","latitude":"48.864759","zone":1,"ignore_itineraire":0},{"id_stop_area":530,"name":"Maraîchers","longitude":"2.406075","latitude":"48.852087","zone":1,"ignore_itineraire":0},{"id_stop_area":531,"name":"BILLANCOURT","longitude":"2.238269","latitude":"48.832049","zone":1,"ignore_itineraire":0},{"id_stop_area":532,"name":"MARCEL SEMBAT","longitude":"2.243297","latitude":"48.834158","zone":1,"ignore_itineraire":0},{"id_stop_area":533,"name":"CROIX DE CHAVAUX","longitude":"2.436508","latitude":"48.858338","zone":1,"ignore_itineraire":0},{"id_stop_area":534,"name":"Mairie de Montreuil","longitude":"2.441619","latitude":"48.862245","zone":1,"ignore_itineraire":0},{"id_stop_area":535,"name":"ROBESPIERRE","longitude":"2.423138","latitude":"48.855743","zone":1,"ignore_itineraire":0},{"id_stop_area":536,"name":"Voltaire / Léon Blum","longitude":"2.380384","latitude":"48.858073","zone":1,"ignore_itineraire":0},{"id_stop_area":537,"name":"Iena","longitude":"2.293951","latitude":"48.864887","zone":1,"ignore_itineraire":0},{"id_stop_area":538,"name":"Pont de Sèvres","longitude":"2.230369","latitude":"48.829729","zone":1,"ignore_itineraire":0},{"id_stop_area":539,"name":"LA MUETTE","longitude":"2.274802","latitude":"48.858072","zone":1,"ignore_itineraire":0},{"id_stop_area":540,"name":"RUE DE LA POMPE","longitude":"2.277456","latitude":"48.863911","zone":1,"ignore_itineraire":0},{"id_stop_area":541,"name":"BOULETS / MONTREUIL","longitude":"2.389421","latitude":"48.852198","zone":1,"ignore_itineraire":0},{"id_stop_area":542,"name":"ST AMBROISE","longitude":"2.37513","latitude":"48.861687","zone":1,"ignore_itineraire":0},{"id_stop_area":543,"name":"ST AUGUSTIN","longitude":"2.320028","latitude":"48.874611","zone":1,"ignore_itineraire":0},{"id_stop_area":544,"name":"ST PHILIPPE DU ROULE","longitude":"2.311952","latitude":"48.872689","zone":1,"ignore_itineraire":0},{"id_stop_area":545,"name":"PORTE DE MONTREUIL","longitude":"2.410685","latitude":"48.85352","zone":1,"ignore_itineraire":0},{"id_stop_area":546,"name":"L'ILE ST DENIS","longitude":"2.340133","latitude":"48.935668","zone":3,"ignore_itineraire":0},{"id_stop_area":547,"name":"MAIRIE","longitude":"2.333406","latitude":"48.935616","zone":3,"ignore_itineraire":0},{"id_stop_area":548,"name":"LA NOUE","longitude":"2.326673","latitude":"48.934242","zone":3,"ignore_itineraire":0},{"id_stop_area":549,"name":"Chemin des Reniers","longitude":"2.32111","latitude":"48.933056","zone":3,"ignore_itineraire":0},{"id_stop_area":550,"name":"Parc des Chanteraines","longitude":"2.313526","latitude":"48.933763","zone":3,"ignore_itineraire":0},{"id_stop_area":551,"name":"TIMBAUD / FELICIE","longitude":"2.302112","latitude":"48.933097","zone":3,"ignore_itineraire":0},{"id_stop_area":552,"name":"LE VILLAGE","longitude":"2.294111","latitude":"48.933436","zone":3,"ignore_itineraire":0},{"id_stop_area":553,"name":"LE LUTH","longitude":"2.288619","latitude":"48.932189","zone":3,"ignore_itineraire":0},{"id_stop_area":554,"name":"PONT DE BONDY","longitude":"2.469873","latitude":"48.904118","zone":3,"ignore_itineraire":0},{"id_stop_area":555,"name":"PETIT NOISY","longitude":"2.465186","latitude":"48.900164","zone":3,"ignore_itineraire":0},{"id_stop_area":556,"name":"JEAN ROSTAND","longitude":"2.454336","latitude":"48.90774","zone":3,"ignore_itineraire":0},{"id_stop_area":557,"name":"Auguste Delaune","longitude":"2.459985","latitude":"48.906537","zone":3,"ignore_itineraire":0},{"id_stop_area":558,"name":"HOPITAL AVICENNE","longitude":"2.425734","latitude":"48.915788","zone":3,"ignore_itineraire":0},{"id_stop_area":559,"name":"Maurice Lachâtre","longitude":"2.414259","latitude":"48.918955","zone":3,"ignore_itineraire":0},{"id_stop_area":560,"name":"HOTEL DE VILLE DE BOBIGNY","longitude":"2.443923","latitude":"48.906623","zone":3,"ignore_itineraire":0},{"id_stop_area":561,"name":"Libération","longitude":"2.43931","latitude":"48.906591","zone":3,"ignore_itineraire":0},{"id_stop_area":562,"name":"LA FERME","longitude":"2.437441","latitude":"48.910607","zone":3,"ignore_itineraire":0},{"id_stop_area":563,"name":"ESCADRILLE NORMANDIE / NIEMEN","longitude":"2.436048","latitude":"48.912857","zone":3,"ignore_itineraire":0},{"id_stop_area":564,"name":"GASTON ROULAUD","longitude":"2.431923","latitude":"48.915072","zone":3,"ignore_itineraire":0},{"id_stop_area":565,"name":"DRANCY AVENIR","longitude":"2.418088","latitude":"48.918267","zone":3,"ignore_itineraire":0},{"id_stop_area":566,"name":"DANTON","longitude":"2.406661","latitude":"48.92269","zone":3,"ignore_itineraire":0},{"id_stop_area":567,"name":"STADE GEO ANDRE","longitude":"2.402054","latitude":"48.924382","zone":3,"ignore_itineraire":0},{"id_stop_area":568,"name":"LA COURNEUVE HOTEL DE VILLE","longitude":"2.39244","latitude":"48.926477","zone":3,"ignore_itineraire":0},{"id_stop_area":569,"name":"SIX ROUTES / TRAMWAY","longitude":"2.385547","latitude":"48.929519","zone":3,"ignore_itineraire":0},{"id_stop_area":570,"name":"COSMONAUTES","longitude":"2.378207","latitude":"48.931753","zone":3,"ignore_itineraire":0},{"id_stop_area":571,"name":"Hôpital Delafontaine","longitude":"2.367919","latitude":"48.932711","zone":3,"ignore_itineraire":0},{"id_stop_area":572,"name":"CIMETIERE DE ST DENIS","longitude":"2.364215","latitude":"48.936239","zone":3,"ignore_itineraire":0},{"id_stop_area":573,"name":"MARCHE DE ST DENIS","longitude":"2.355617","latitude":"48.938779","zone":3,"ignore_itineraire":0},{"id_stop_area":574,"name":"THEATRE GERARD PHILIPE","longitude":"2.35011","latitude":"48.936451","zone":3,"ignore_itineraire":0},{"id_stop_area":575,"name":"FAUBOURG DE L'ARCHE","longitude":"2.240267","latitude":"48.896828","zone":3,"ignore_itineraire":0},{"id_stop_area":576,"name":"LES FAUVELLES","longitude":"2.239241","latitude":"48.903988","zone":3,"ignore_itineraire":0},{"id_stop_area":577,"name":"CHARLEBOURG","longitude":"2.238731","latitude":"48.906756","zone":3,"ignore_itineraire":0},{"id_stop_area":578,"name":"JACQUELINE AURIOL","longitude":"2.233446","latitude":"48.911227","zone":3,"ignore_itineraire":0},{"id_stop_area":579,"name":"VICTOR BASCH","longitude":"2.228562","latitude":"48.91376","zone":3,"ignore_itineraire":0},{"id_stop_area":580,"name":"Parc Pierre Lagravère","longitude":"2.229727","latitude":"48.921152","zone":3,"ignore_itineraire":0},{"id_stop_area":581,"name":"Pont de Bezons","longitude":"2.218329","latitude":"48.923297","zone":4,"ignore_itineraire":1},{"id_stop_area":582,"name":"GARE DE PUTEAUX","longitude":"2.233377","latitude":"48.883392","zone":3,"ignore_itineraire":0},{"id_stop_area":583,"name":"PARC DE ST CLOUD","longitude":"2.221624","latitude":"48.842249","zone":3,"ignore_itineraire":0},{"id_stop_area":584,"name":"LES MOULINEAUX","longitude":"2.251902","latitude":"48.82158","zone":2,"ignore_itineraire":0},{"id_stop_area":585,"name":"MEUDON SUR SEINE","longitude":"2.239613","latitude":"48.819028","zone":3,"ignore_itineraire":0},{"id_stop_area":586,"name":"BRIMBORION","longitude":"2.231555","latitude":"48.822046","zone":3,"ignore_itineraire":0},{"id_stop_area":587,"name":"LES MILONS","longitude":"2.219695","latitude":"48.850259","zone":3,"ignore_itineraire":0},{"id_stop_area":588,"name":"LES COTEAUX","longitude":"2.220503","latitude":"48.856824","zone":3,"ignore_itineraire":0},{"id_stop_area":589,"name":"MUSEE DE SEVRES","longitude":"2.22559","latitude":"48.828299","zone":3,"ignore_itineraire":0},{"id_stop_area":590,"name":"BELVEDERE","longitude":"2.225144","latitude":"48.876524","zone":3,"ignore_itineraire":0},{"id_stop_area":591,"name":"SURESNES / LONGCHAMP","longitude":"2.222541","latitude":"48.868268","zone":3,"ignore_itineraire":0},{"id_stop_area":592,"name":"PORTE D'ISSY","longitude":"2.28084","latitude":"48.831798","zone":1,"ignore_itineraire":0},{"id_stop_area":593,"name":"SUZANNE LENGLEN","longitude":"2.276672","latitude":"48.833516","zone":1,"ignore_itineraire":0},{"id_stop_area":594,"name":"HENRI FARMAN","longitude":"2.271597","latitude":"48.834873","zone":1,"ignore_itineraire":0},{"id_stop_area":595,"name":"Issy Val de Seine","longitude":"2.263492","latitude":"48.829359","zone":2,"ignore_itineraire":0},{"id_stop_area":596,"name":"JACQUES HENRI LARTIGUE","longitude":"2.261463","latitude":"48.823629","zone":2,"ignore_itineraire":0},{"id_stop_area":597,"name":"MARYSE BASTIE","longitude":"2.377078","latitude":"48.823871","zone":1,"ignore_itineraire":0},{"id_stop_area":598,"name":"AVENUE DE FRANCE","longitude":"2.380992","latitude":"48.82594","zone":1,"ignore_itineraire":0},{"id_stop_area":599,"name":"Baron Le Roy","longitude":"2.391352","latitude":"48.830568","zone":1,"ignore_itineraire":0},{"id_stop_area":600,"name":"MONTEMPOIVRE","longitude":"2.408954","latitude":"48.840106","zone":1,"ignore_itineraire":0},{"id_stop_area":601,"name":"ALEXANDRA DAVID-NEEL","longitude":"2.41061","latitude":"48.843546","zone":1,"ignore_itineraire":0},{"id_stop_area":602,"name":"BRANCION","longitude":"2.3007","latitude":"48.828602","zone":1,"ignore_itineraire":0},{"id_stop_area":603,"name":"DIDOT","longitude":"2.313816","latitude":"48.826479","zone":1,"ignore_itineraire":0},{"id_stop_area":604,"name":"JEAN MOULIN","longitude":"2.318261","latitude":"48.824432","zone":1,"ignore_itineraire":0},{"id_stop_area":605,"name":"POTERNE DES PEUPLIERS","longitude":"2.351702","latitude":"48.820861","zone":1,"ignore_itineraire":0},{"id_stop_area":606,"name":"MONTSOURIS","longitude":"2.333567","latitude":"48.822328","zone":1,"ignore_itineraire":0},{"id_stop_area":607,"name":"Cité Universitaire","longitude":"2.339396","latitude":"48.82075","zone":1,"ignore_itineraire":0},{"id_stop_area":608,"name":"GEORGES BRASSENS","longitude":"2.29565","latitude":"48.829851","zone":1,"ignore_itineraire":0},{"id_stop_area":609,"name":"STADE CHARLETY / PORTE DE GENTILLY","longitude":"2.344274","latitude":"48.820226","zone":1,"ignore_itineraire":0},{"id_stop_area":610,"name":"DESNOUETTES","longitude":"2.284443","latitude":"48.835228","zone":1,"ignore_itineraire":0},{"id_stop_area":611,"name":"MARIE DE MIRIBEL","longitude":"2.409668","latitude":"48.858825","zone":1,"ignore_itineraire":0},{"id_stop_area":612,"name":"SEVERINE","longitude":"2.408971","latitude":"48.867431","zone":1,"ignore_itineraire":0},{"id_stop_area":613,"name":"ADRIENNE BOLLAND","longitude":"2.408617","latitude":"48.872172","zone":1,"ignore_itineraire":0},{"id_stop_area":614,"name":"HOPITAL ROBERT DEBRE","longitude":"2.401057","latitude":"48.879223","zone":1,"ignore_itineraire":0},{"id_stop_area":615,"name":"BUTTE DU CHAPEAU ROUGE","longitude":"2.396493","latitude":"48.88567","zone":1,"ignore_itineraire":0},{"id_stop_area":616,"name":"PORTE DE PANTIN / PARC DE LA VILLETTE","longitude":"2.395819","latitude":"48.889338","zone":1,"ignore_itineraire":0},{"id_stop_area":617,"name":"DELPHINE SEYRIG","longitude":"2.40013","latitude":"48.894418","zone":1,"ignore_itineraire":0},{"id_stop_area":618,"name":"ELLA FITZGERALD / GRANDS MOULINS DE PANTIN","longitude":"2.395116","latitude":"48.897424","zone":1,"ignore_itineraire":0},{"id_stop_area":619,"name":"CANAL SAINT DENIS","longitude":"2.380355","latitude":"48.898873","zone":1,"ignore_itineraire":0},{"id_stop_area":620,"name":"PORTE D'AUBERVILLIERS","longitude":"2.369617","latitude":"48.89909","zone":1,"ignore_itineraire":0},{"id_stop_area":621,"name":"COLETTE BESSON","longitude":"2.363759","latitude":"48.898641","zone":1,"ignore_itineraire":0},{"id_stop_area":622,"name":"ROUGEMONT CHANTELOUP","longitude":"2.515534","latitude":"48.930733","zone":4,"ignore_itineraire":1},{"id_stop_area":623,"name":"REMISE A JORELLE","longitude":"2.487754","latitude":"48.893329","zone":3,"ignore_itineraire":0},{"id_stop_area":624,"name":"Lycée Henry Sellier","longitude":"2.515033","latitude":"48.916466","zone":4,"ignore_itineraire":1},{"id_stop_area":625,"name":"Gare des Coquetiers","longitude":"2.499844","latitude":"48.89269","zone":3,"ignore_itineraire":0},{"id_stop_area":626,"name":"LES PAVILLONS SOUS BOIS T4","longitude":"2.510144","latitude":"48.902253","zone":4,"ignore_itineraire":1},{"id_stop_area":627,"name":"GARE DE GARGAN","longitude":"2.517299","latitude":"48.908289","zone":4,"ignore_itineraire":1},{"id_stop_area":628,"name":"Gare Allée de la Tour Rendez-Vous","longitude":"2.506013","latitude":"48.896719","zone":4,"ignore_itineraire":1},{"id_stop_area":629,"name":"Gare de l'Abbaye","longitude":"2.516734","latitude":"48.92217","zone":4,"ignore_itineraire":1},{"id_stop_area":630,"name":"GARE DE FREINVILLE SEVRAN","longitude":"2.519784","latitude":"48.927062","zone":4,"ignore_itineraire":1},{"id_stop_area":631,"name":"BAUDELAIRE","longitude":"2.356837","latitude":"48.942478","zone":3,"ignore_itineraire":0},{"id_stop_area":632,"name":"ROGER SEMAT","longitude":"2.357002","latitude":"48.944673","zone":3,"ignore_itineraire":0},{"id_stop_area":633,"name":"GUYNEMER","longitude":"2.357246","latitude":"48.948121","zone":3,"ignore_itineraire":0},{"id_stop_area":634,"name":"PETIT PIERREFITTE","longitude":"2.357923","latitude":"48.952275","zone":3,"ignore_itineraire":0},{"id_stop_area":635,"name":"JONCHEROLLES","longitude":"2.358364","latitude":"48.955908","zone":3,"ignore_itineraire":0},{"id_stop_area":636,"name":"SUZANNE VALADON","longitude":"2.358416","latitude":"48.959232","zone":3,"ignore_itineraire":0},{"id_stop_area":637,"name":"MAIRIE DE PIERREFITTE","longitude":"2.360114","latitude":"48.963456","zone":4,"ignore_itineraire":1},{"id_stop_area":638,"name":"ALCIDE D'ORBIGNY","longitude":"2.364116","latitude":"48.965884","zone":4,"ignore_itineraire":1},{"id_stop_area":639,"name":"JACQUES PREVERT","longitude":"2.365984","latitude":"48.970815","zone":4,"ignore_itineraire":1},{"id_stop_area":640,"name":"BUTTE PINSON","longitude":"2.366149","latitude":"48.973397","zone":4,"ignore_itineraire":1},{"id_stop_area":641,"name":"LES CHOLETTES","longitude":"2.371391","latitude":"48.977391","zone":4,"ignore_itineraire":1},{"id_stop_area":642,"name":"LES FLANADES","longitude":"2.377552","latitude":"48.977236","zone":4,"ignore_itineraire":1},{"id_stop_area":643,"name":"Paul Valéry","longitude":"2.379363","latitude":"48.979234","zone":4,"ignore_itineraire":1},{"id_stop_area":644,"name":"Les Lochères","longitude":"2.385277","latitude":"48.978461","zone":4,"ignore_itineraire":1},{"id_stop_area":645,"name":"VAUBAN","longitude":"2.294016","latitude":"48.80677","zone":3,"ignore_itineraire":0},{"id_stop_area":646,"name":"Centre de Châtillon","longitude":"2.289463","latitude":"48.803788","zone":3,"ignore_itineraire":0},{"id_stop_area":647,"name":"Parc André Malraux","longitude":"2.283057","latitude":"48.800651","zone":3,"ignore_itineraire":0},{"id_stop_area":648,"name":"DIVISION LECLERC","longitude":"2.272627","latitude":"48.794826","zone":3,"ignore_itineraire":0},{"id_stop_area":649,"name":"SOLEIL LEVANT","longitude":"2.263466","latitude":"48.790862","zone":3,"ignore_itineraire":0},{"id_stop_area":650,"name":"Hôpital Béclère","longitude":"2.25506","latitude":"48.786942","zone":3,"ignore_itineraire":0},{"id_stop_area":651,"name":"Mail de la Plaine","longitude":"2.24627","latitude":"48.784101","zone":3,"ignore_itineraire":0},{"id_stop_area":652,"name":"Pavé Blanc","longitude":"2.239574","latitude":"48.780628","zone":3,"ignore_itineraire":0},{"id_stop_area":653,"name":"Georges Pompidou","longitude":"2.236571","latitude":"48.785337","zone":3,"ignore_itineraire":0},{"id_stop_area":654,"name":"GEORGES MILLANDY","longitude":"2.23132","latitude":"48.78367","zone":3,"ignore_itineraire":0},{"id_stop_area":655,"name":"Meudon-la-Forêt","longitude":"2.22509","latitude":"48.784142","zone":3,"ignore_itineraire":0},{"id_stop_area":656,"name":"VELIZY 2","longitude":"2.218799","latitude":"48.784981","zone":3,"ignore_itineraire":0},{"id_stop_area":657,"name":"Dewoitine","longitude":"2.21474","latitude":"48.783661","zone":3,"ignore_itineraire":0},{"id_stop_area":658,"name":"INOVEL PARC NORD","longitude":"2.208518","latitude":"48.781028","zone":3,"ignore_itineraire":0},{"id_stop_area":659,"name":"Louvois","longitude":"2.196556","latitude":"48.780029","zone":3,"ignore_itineraire":0},{"id_stop_area":660,"name":"Mairie de Vélizy","longitude":"2.191607","latitude":"48.781149","zone":3,"ignore_itineraire":0},{"id_stop_area":661,"name":"L'ONDE","longitude":"2.180272","latitude":"48.78188","zone":3,"ignore_itineraire":0},{"id_stop_area":662,"name":"Robert Wagner","longitude":"2.178961","latitude":"48.785122","zone":3,"ignore_itineraire":0},{"id_stop_area":663,"name":"GARE DE VIROFLAY RIVE DROITE","longitude":"2.168739","latitude":"48.805368","zone":3,"ignore_itineraire":0},{"id_stop_area":664,"name":"Aéroport Orly Sud","longitude":"2.369361","latitude":"48.728974","zone":4,"ignore_itineraire":1},{"id_stop_area":665,"name":"LAMARTINE","longitude":"2.365838","latitude":"48.783244","zone":3,"ignore_itineraire":0},{"id_stop_area":666,"name":"DOMAINE CHERIOUX","longitude":"2.36731","latitude":"48.779252","zone":3,"ignore_itineraire":0},{"id_stop_area":667,"name":"MOULIN VERT","longitude":"2.370643","latitude":"48.772503","zone":3,"ignore_itineraire":0},{"id_stop_area":668,"name":"Bretagne","longitude":"2.367643","latitude":"48.768474","zone":3,"ignore_itineraire":0},{"id_stop_area":669,"name":"AUGUSTE PERRET (CIMETIERE PARISIEN)","longitude":"2.367642","latitude":"48.763999","zone":3,"ignore_itineraire":0},{"id_stop_area":670,"name":"PORTE DE THIAIS (MARCHE INTERNATIONAL)","longitude":"2.366348","latitude":"48.759551","zone":3,"ignore_itineraire":0},{"id_stop_area":671,"name":"LA BELLE EPINE","longitude":"2.368642","latitude":"48.755871","zone":3,"ignore_itineraire":0},{"id_stop_area":672,"name":"PLACE DE LA LOGISTIQUE (PLATEFORME SOGARIS)","longitude":"2.361876","latitude":"48.752941","zone":3,"ignore_itineraire":0},{"id_stop_area":673,"name":"PORTE DE RUNGIS","longitude":"2.354624","latitude":"48.752432","zone":3,"ignore_itineraire":0},{"id_stop_area":674,"name":"SAARINEN (PARC SILIC NORD)","longitude":"2.354603","latitude":"48.750049","zone":3,"ignore_itineraire":0},{"id_stop_area":675,"name":"ROBERT SCHUMAN (PARC SILIC CENTRE)","longitude":"2.353268","latitude":"48.746452","zone":4,"ignore_itineraire":1},{"id_stop_area":676,"name":"HELENE BOUCHER (ORLYTECH)","longitude":"2.359699","latitude":"48.740675","zone":4,"ignore_itineraire":1},{"id_stop_area":677,"name":"CAROLINE AIGLE (ORLYFRET)","longitude":"2.369787","latitude":"48.738248","zone":4,"ignore_itineraire":1},{"id_stop_area":678,"name":"COEUR D'ORLY","longitude":"2.370995","latitude":"48.734322","zone":4,"ignore_itineraire":1},{"id_stop_area":679,"name":"Porte de L'Essonne","longitude":"2.37167","latitude":"48.714374","zone":4,"ignore_itineraire":1},{"id_stop_area":680,"name":"PIERRE DE GEYTER","longitude":"2.352428","latitude":"48.931663","zone":3,"ignore_itineraire":0},{"id_stop_area":681,"name":"PAUL ELUARD","longitude":"2.345091","latitude":"48.939758","zone":3,"ignore_itineraire":0},{"id_stop_area":682,"name":"DELAUNAY / BELLEVILLE","longitude":"2.348746","latitude":"48.945767","zone":3,"ignore_itineraire":0},{"id_stop_area":683,"name":"CESAR","longitude":"2.342579","latitude":"48.949132","zone":3,"ignore_itineraire":0},{"id_stop_area":684,"name":"JEAN VILAR","longitude":"2.34338","latitude":"48.952794","zone":3,"ignore_itineraire":0},{"id_stop_area":685,"name":"PABLO NERUDA","longitude":"2.344083","latitude":"48.956456","zone":3,"ignore_itineraire":0},{"id_stop_area":686,"name":"UNIVERSITE - PARIS 13","longitude":"2.340697","latitude":"48.95855","zone":3,"ignore_itineraire":0},{"id_stop_area":687,"name":"Cité Blumenthal","longitude":"2.339054","latitude":"48.947842","zone":3,"ignore_itineraire":0},{"id_stop_area":688,"name":"LES MOBILES","longitude":"2.330272","latitude":"48.949055","zone":3,"ignore_itineraire":0},{"id_stop_area":689,"name":"LES BEATUS","longitude":"2.321102","latitude":"48.952036","zone":3,"ignore_itineraire":0},{"id_stop_area":690,"name":"ROSE BERTIN","longitude":"2.315598","latitude":"48.953061","zone":3,"ignore_itineraire":0},{"id_stop_area":691,"name":"Lacépède","longitude":"2.311696","latitude":"48.955694","zone":3,"ignore_itineraire":0},{"id_stop_area":692,"name":"GILBERT BONNEMAISON","longitude":"2.307709","latitude":"48.955094","zone":3,"ignore_itineraire":0},{"id_stop_area":693,"name":"EPINAY - ORGEMONT","longitude":"2.294145","latitude":"48.955719","zone":3,"ignore_itineraire":0}]